[2024-06-04 16:51:28.619226] $GPRMC,,V,,,,,,,,,,N*53

[2024-06-04 16:51:29.305619] $GPRMC,,V,,,,,,,,,,N*53

[2024-06-04 16:51:30.305523] $GPRMC,,V,,,,,,,,,,N*53

[2024-06-04 16:51:31.305438] $GPRMC,,V,,,,,,,,,,N*53

[2024-06-04 16:51:32.305336] $GPRMC,,V,,,,,,,,,,N*53

[2024-06-04 16:51:33.305542] $GPRMC,,V,,,,,,,,,,N*53

[2024-06-04 16:51:34.306256] $GPRMC,,V,,,,,,,,,,N*53

[2024-06-04 16:51:35.306756] $GPRMC,,V,,,,,,,,,,N*53

[2024-06-04 16:51:36.306621] $GPRMC,,V,,,,,,,,,,N*53

[2024-06-04 16:51:37.306641] $GPRMC,,V,,,,,,,,,,N*53

[2024-06-04 16:51:38.307503] $GPRMC,,V,,,,,,,,,,N*53

[2024-06-04 16:51:39.307123] $GPRMC,,V,,,,,,,,,,N*53

[2024-06-04 16:51:40.307715] $GPRMC,,V,,,,,,,,,,N*53

[2024-06-04 16:51:40.945746] $GPRMC,141137.00,V,,,,,,,,,,N*7C

[2024-06-04 16:51:41.946212] $GPRMC,141138.00,V,,,,,,,,,,N*73

[2024-06-04 16:51:43.107785] $GPRMC,141139.00,V,,,,,,,,,,N*72

[2024-06-04 16:51:43.946290] $GPRMC,141140.00,V,,,,,,,,,,N*7C

[2024-06-04 16:51:44.946869] $GPRMC,141141.00,V,,,,,,,,,,N*7D

[2024-06-04 16:51:45.945615] $GPRMC,141142.00,V,,,,,,,,,,N*7E

[2024-06-04 16:51:46.947607] $GPRMC,141143.00,V,,,,,,,,,,N*7F

[2024-06-04 16:51:47.946079] $GPRMC,141144.00,V,,,,,,,,,,N*78

[2024-06-04 16:51:48.421207] $GPRMC,,V,,,,,,,,,,N*53

[2024-06-04 16:52:37.971642] $GPRMC,,V,,,,,,,,,,N*53

[2024-06-04 16:52:38.657988] $GPRMC,,V,,,,,,,,,,N*53

[2024-06-04 16:52:39.657933] $GPRMC,,V,,,,,,,,,,N*53

[2024-06-04 16:52:40.657811] $GPRMC,,V,,,,,,,,,,N*53

[2024-06-04 16:52:41.658023] $GPRMC,,V,,,,,,,,,,N*53

[2024-06-04 16:53:17.903030] $GPRMC,,V,,,,,,,,,,N*53

[2024-06-04 16:54:47.875430] $GPRMC,,V,,,,,,,,,,N*53

[2024-06-04 16:54:48.561639] $GPRMC,,V,,,,,,,,,,N*53

[2024-06-04 16:54:50.754729] $GPRMC,,V,,,,,,,,,,N*53

[2024-06-04 16:54:51.441077] $GPRMC,,V,,,,,,,,,,N*53

[2024-06-04 16:54:53.635645] $GPRMC,,V,,,,,,,,,,N*53

[2024-06-04 16:54:54.321836] $GPRMC,,V,,,,,,,,,,N*53

[2024-06-04 16:54:55.321925] $GPRMC,,V,,,,,,,,,,N*53

[2024-06-04 16:54:56.321949] $GPRMC,,V,,,,,,,,,,N*53

[2024-06-04 16:54:57.321894] $GPRMC,,V,,,,,,,,,,N*53

[2024-06-04 16:54:58.321978] $GPRMC,,V,,,,,,,,,,N*53

[2024-06-04 16:54:59.322838] $GPRMC,,V,,,,,,,,,,N*53

[2024-06-04 16:55:00.323505] $GPRMC,,V,,,,,,,,,,N*53

[2024-06-04 16:55:01.322173] $GPRMC,,V,,,,,,,,,,N*53

[2024-06-04 16:55:02.355957] $GPRMC,141458.41,V,,,,,,,,,,N*75

[2024-06-04 16:55:02.952172] $GPRMC,141459.00,V,,,,,,,,,,N*71

[2024-06-04 16:55:03.952612] $GPRMC,141500.00,V,,,,,,,,,,N*7C

[2024-06-04 16:55:04.952767] $GPRMC,141501.00,V,,,,,,,,,,N*7D

[2024-06-04 16:55:05.952460] $GPRMC,141502.00,V,,,,,,,,,,N*7E

[2024-06-04 16:55:07.112634] $GPRMC,141503.00,V,,,,,,,,,,N*7F

[2024-06-04 16:55:07.952121] $GPRMC,141504.00,V,,,,,,,,,,N*78

[2024-06-04 16:55:08.952956] $GPRMC,141505.00,V,,,,,,,,,,N*79

[2024-06-04 16:55:09.951464] $GPRMC,141506.00,V,,,,,,,,,,N*7A

[2024-06-04 16:55:10.951103] $GPRMC,141507.00,V,,,,,,,,,,N*7B

[2024-06-04 16:55:11.953261] $GPRMC,141508.00,V,,,,,,,,,,N*74

[2024-06-04 16:55:13.109961] $GPRMC,141509.00,V,,,,,,,,,,N*75

[2024-06-04 16:55:13.952557] $GPRMC,141510.00,V,,,,,,,,,,N*7D

[2024-06-04 16:55:14.953186] $GPRMC,141511.00,V,,,,,,,,,,N*7C

[2024-06-04 16:55:15.952946] $GPRMC,141512.00,V,,,,,,,,,,N*7F

[2024-06-04 16:55:16.952947] $GPRMC,141513.00,V,,,,,,,,,,N*7E

[2024-06-04 16:55:17.953340] $GPRMC,141514.00,V,,,,,,,,,,N*79

[2024-06-04 16:55:19.109576] $GPRMC,141515.00,V,,,,,,,,,,N*78

[2024-06-04 16:55:19.949845] $GPRMC,141516.00,V,,,,,,,,,,N*7B

[2024-06-04 16:55:20.951282] $GPRMC,141517.00,V,,,,,,,040624,,,N*7E

[2024-06-04 16:55:21.949495] $GPRMC,141518.00,V,,,,,,,040624,,,N*71

[2024-06-04 16:55:22.949278] $GPRMC,141519.00,V,,,,,,,040624,,,N*70

[2024-06-04 16:55:23.950682] $GPRMC,141520.00,V,,,,,,,040624,,,N*7A

[2024-06-04 16:55:25.46983] $GPRMC,141521.01,V,,,,,,,040624,,,N*7A

[2024-06-04 16:55:25.949441] $GPRMC,141522.00,V,,,,,,,040624,,,N*78

[2024-06-04 16:55:26.946740] $GPRMC,141523.00,V,,,,,,,040624,,,N*79

[2024-06-04 16:55:27.947029] $GPRMC,141524.00,V,,,,,,,040624,,,N*7E

[2024-06-04 16:55:28.946190] $GPRMC,141525.00,V,,,,,,,040624,,,N*7F

[2024-06-04 16:55:29.946569] $GPRMC,141526.00,V,,,,,,,040624,,,N*7C

[2024-06-04 16:55:31.101718] $GPRMC,141527.00,V,,,,,,,040624,,,N*7D

[2024-06-04 16:55:31.946052] $GPRMC,141528.00,V,,,,,,,040624,,,N*72

[2024-06-04 16:55:32.947367] $GPRMC,141529.00,V,,,,,,,040624,,,N*73

[2024-06-04 16:55:33.946254] $GPRMC,141530.00,V,,,,,,,040624,,,N*7B

[2024-06-04 16:55:34.943802] $GPRMC,141531.00,V,,,,,,,040624,,,N*7A

[2024-06-04 16:55:35.944640] $GPRMC,141532.00,V,,,,,,,040624,,,N*79

[2024-06-04 16:55:37.47878] $GPRMC,141532.99,V,,,,,,,040624,,,N*79

[2024-06-04 16:55:37.957213] $GPRMC,141534.00,V,,,,,,,040624,,,N*7F

[2024-06-04 16:55:38.959133] $GPRMC,141535.00,V,,,,,,,040624,,,N*7E

[2024-06-04 16:55:39.959354] $GPRMC,141536.00,V,,,,,,,040624,,,N*7D

[2024-06-04 16:55:40.958444] $GPRMC,141537.00,V,,,,,,,040624,,,N*7C

[2024-06-04 16:55:41.961719] $GPRMC,141538.00,V,,,,,,,040624,,,N*73

[2024-06-04 16:55:43.124801] $GPRMC,141539.00,V,,,,,,,040624,,,N*72

[2024-06-04 16:55:43.958763] $GPRMC,141540.00,V,,,,,,,040624,,,N*7C

[2024-06-04 16:55:44.959482] $GPRMC,141541.00,V,,,,,,,040624,,,N*7D

[2024-06-04 16:55:45.957804] $GPRMC,141542.00,V,,,,,,,040624,,,N*7E

[2024-06-04 16:55:46.960825] $GPRMC,141543.00,V,,,,,,,040624,,,N*7F

[2024-06-04 16:55:47.958922] $GPRMC,141544.00,V,,,,,,,040624,,,N*78

[2024-06-04 16:55:49.124871] $GPRMC,141545.00,V,,,,,,,040624,,,N*79

[2024-06-04 16:55:49.959813] $GPRMC,141546.00,V,,,,,,,040624,,,N*7A

[2024-06-04 16:55:50.959858] $GPRMC,141547.00,V,,,,,,,040624,,,N*7B

[2024-06-04 16:55:51.960526] $GPRMC,141548.00,V,,,,,,,040624,,,N*74

[2024-06-04 16:55:52.959062] $GPRMC,141549.00,V,,,,,,,040624,,,N*75

[2024-06-04 16:55:53.959486] $GPRMC,141550.00,V,,,,,,,040624,,,N*7D

[2024-06-04 16:55:55.126583] $GPRMC,141551.00,V,,,,,,,040624,,,N*7C

[2024-06-04 16:55:55.959176] $GPRMC,141552.00,V,,,,,,,040624,,,N*7F

[2024-06-04 16:55:56.959634] $GPRMC,141553.00,V,,,,,,,040624,,,N*7E

[2024-06-04 16:55:57.960725] $GPRMC,141554.00,V,,,,,,,040624,,,N*79

[2024-06-04 16:55:58.960337] $GPRMC,141555.00,V,,,,,,,040624,,,N*78

[2024-06-04 16:55:59.960796] $GPRMC,141556.00,V,,,,,,,040624,,,N*7B

[2024-06-04 16:56:01.114202] $GPRMC,141557.00,V,,,,,,,040624,,,N*7A

[2024-06-04 16:56:01.962415] $GPRMC,141558.00,V,,,,,,,040624,,,N*75

[2024-06-04 16:56:02.961689] $GPRMC,141559.00,V,,,,,,,040624,,,N*74

[2024-06-04 16:56:03.960100] $GPRMC,141600.00,V,,,,,,,040624,,,N*7B

[2024-06-04 16:56:04.959521] $GPRMC,141601.00,V,,,,,,,040624,,,N*7A

[2024-06-04 16:56:05.960246] $GPRMC,141602.00,V,,,,,,,040624,,,N*79

[2024-06-04 16:56:07.127704] $GPRMC,141603.00,V,,,,,,,040624,,,N*78

[2024-06-04 16:56:07.960981] $GPRMC,141604.00,V,,,,,,,040624,,,N*7F

[2024-06-04 16:56:08.960376] $GPRMC,141605.00,V,,,,,,,040624,,,N*7E

[2024-06-04 16:56:09.960367] $GPRMC,141606.00,V,,,,,,,040624,,,N*7D

[2024-06-04 16:56:10.960533] $GPRMC,141607.00,V,,,,,,,040624,,,N*7C

[2024-06-04 16:56:11.960321] $GPRMC,141608.00,V,,,,,,,040624,,,N*73

[2024-06-04 16:56:13.122864] $GPRMC,141609.00,V,,,,,,,040624,,,N*72

[2024-06-04 16:56:13.959959] $GPRMC,141610.00,V,,,,,,,040624,,,N*7A

[2024-06-04 16:56:14.959447] $GPRMC,141611.00,V,,,,,,,040624,,,N*7B

[2024-06-04 16:56:15.958819] $GPRMC,141612.00,V,,,,,,,040624,,,N*78

[2024-06-04 16:56:16.958758] $GPRMC,141613.00,V,,,,,,,040624,,,N*79

[2024-06-04 16:56:17.959315] $GPRMC,141614.00,V,,,,,,,040624,,,N*7E

[2024-06-04 16:56:19.126450] $GPRMC,141615.00,V,,,,,,,040624,,,N*7F

[2024-06-04 16:56:19.958913] $GPRMC,141616.00,V,,,,,,,040624,,,N*7C

[2024-06-04 16:56:20.959990] $GPRMC,141617.00,V,,,,,,,040624,,,N*7D

[2024-06-04 16:56:21.959127] $GPRMC,141618.00,V,,,,,,,040624,,,N*72

[2024-06-04 16:56:22.960201] $GPRMC,141619.00,V,,,,,,,040624,,,N*73

[2024-06-04 16:56:23.965254] $GPRMC,141620.00,V,,,,,,,040624,,,N*79

[2024-06-04 16:56:25.126829] $GPRMC,141621.00,V,,,,,,,040624,,,N*78

[2024-06-04 16:56:25.960559] $GPRMC,141622.00,V,,,,,,,040624,,,N*7B

[2024-06-04 16:56:26.960589] $GPRMC,141623.00,V,,,,,,,040624,,,N*7A

[2024-06-04 16:56:27.961138] $GPRMC,141624.00,V,,,,,,,040624,,,N*7D

[2024-06-04 16:56:28.958897] $GPRMC,141625.00,V,,,,,,,040624,,,N*7C

[2024-06-04 16:56:29.961724] $GPRMC,141626.00,V,,,,,,,040624,,,N*7F

[2024-06-04 16:56:31.127333] $GPRMC,141627.00,V,,,,,,,040624,,,N*7E

[2024-06-04 16:56:31.960626] $GPRMC,141628.00,V,,,,,,,040624,,,N*71

[2024-06-04 16:56:32.960773] $GPRMC,141629.00,V,,,,,,,040624,,,N*70

[2024-06-04 16:56:33.960674] $GPRMC,141630.00,V,,,,,,,040624,,,N*78

[2024-06-04 16:56:34.959783] $GPRMC,141631.00,V,,,,,,,040624,,,N*79

[2024-06-04 16:56:35.964660] $GPRMC,141632.00,V,,,,,,,040624,,,N*7A

[2024-06-04 16:56:37.126589] $GPRMC,141633.00,V,,,,,,,040624,,,N*7B

[2024-06-04 16:56:37.959805] $GPRMC,141634.00,V,,,,,,,040624,,,N*7C

[2024-06-04 16:56:38.960444] $GPRMC,141635.00,V,,,,,,,040624,,,N*7D

[2024-06-04 16:56:39.959715] $GPRMC,141636.00,V,,,,,,,040624,,,N*7E

[2024-06-04 16:56:40.960373] $GPRMC,141637.00,V,,,,,,,040624,,,N*7F

[2024-06-04 16:56:41.959683] $GPRMC,141638.00,V,,,,,,,040624,,,N*70

[2024-06-04 16:56:43.118660] $GPRMC,141639.00,V,,,,,,,040624,,,N*71

[2024-06-04 16:56:43.959653] $GPRMC,141640.00,V,,,,,,,040624,,,N*7F

[2024-06-04 16:56:44.960798] $GPRMC,141641.00,V,,,,,,,040624,,,N*7E

[2024-06-04 16:56:45.960204] $GPRMC,141642.00,V,,,,,,,040624,,,N*7D

[2024-06-04 16:56:46.960377] $GPRMC,141643.00,V,,,,,,,040624,,,N*7C

[2024-06-04 16:56:47.961215] $GPRMC,141644.00,V,,,,,,,040624,,,N*7B

[2024-06-04 16:56:49.128972] $GPRMC,141645.00,V,,,,,,,040624,,,N*7A

[2024-06-04 16:56:49.961220] $GPRMC,141646.00,V,,,,,,,040624,,,N*79

[2024-06-04 16:56:50.961070] $GPRMC,141647.00,V,,,,,,,040624,,,N*78

[2024-06-04 16:56:51.962634] $GPRMC,141648.00,V,,,,,,,040624,,,N*77

[2024-06-04 16:56:52.960591] $GPRMC,141649.00,V,,,,,,,040624,,,N*76

[2024-06-04 16:56:53.961113] $GPRMC,141650.00,V,,,,,,,040624,,,N*7E

[2024-06-04 16:56:55.114464] $GPRMC,141651.00,V,,,,,,,040624,,,N*7F

[2024-06-04 16:56:55.960297] $GPRMC,141652.00,V,,,,,,,040624,,,N*7C

[2024-06-04 16:56:56.961952] $GPRMC,141653.00,V,,,,,,,040624,,,N*7D

[2024-06-04 16:56:57.961662] $GPRMC,141654.00,V,,,,,,,040624,,,N*7A

[2024-06-04 16:56:58.961291] $GPRMC,141655.00,V,,,,,,,040624,,,N*7B

[2024-06-04 16:56:59.962019] $GPRMC,141656.00,V,,,,,,,040624,,,N*78

[2024-06-04 16:57:01.128445] $GPRMC,141657.00,V,,,,,,,040624,,,N*79

[2024-06-04 16:57:01.961474] $GPRMC,141658.00,V,,,,,,,040624,,,N*76

[2024-06-04 16:57:02.962032] $GPRMC,141659.00,V,,,,,,,040624,,,N*77

[2024-06-04 16:57:03.961128] $GPRMC,141700.00,V,,,,,,,040624,,,N*7A

[2024-06-04 16:57:04.961030] $GPRMC,141701.00,V,,,,,,,040624,,,N*7B

[2024-06-04 16:57:05.961764] $GPRMC,141702.00,V,,,,,,,040624,,,N*78

[2024-06-04 16:57:07.129643] $GPRMC,141703.00,V,,,,,,,040624,,,N*79

[2024-06-04 16:57:07.962046] $GPRMC,141704.00,V,,,,,,,040624,,,N*7E

[2024-06-04 16:57:08.961700] $GPRMC,141705.00,V,,,,,,,040624,,,N*7F

[2024-06-04 16:57:09.961721] $GPRMC,141706.00,V,,,,,,,040624,,,N*7C

[2024-06-04 16:57:10.960889] $GPRMC,141707.00,V,,,,,,,040624,,,N*7D

[2024-06-04 16:57:11.962022] $GPRMC,141708.00,V,,,,,,,040624,,,N*72

[2024-06-04 16:57:13.128978] $GPRMC,141709.00,V,,,,,,,040624,,,N*73

[2024-06-04 16:57:13.961239] $GPRMC,141710.00,V,,,,,,,040624,,,N*7B

[2024-06-04 16:57:14.960911] $GPRMC,141711.00,V,,,,,,,040624,,,N*7A

[2024-06-04 16:57:15.960872] $GPRMC,141712.00,V,,,,,,,040624,,,N*79

[2024-06-04 16:57:16.961041] $GPRMC,141713.00,V,,,,,,,040624,,,N*78

[2024-06-04 16:57:17.961318] $GPRMC,141714.00,V,,,,,,,040624,,,N*7F

[2024-06-04 16:57:19.129653] $GPRMC,141715.00,V,,,,,,,040624,,,N*7E

[2024-06-04 16:57:19.964165] $GPRMC,141716.00,V,,,,,,,040624,,,N*7D

[2024-06-04 16:57:20.961730] $GPRMC,141717.00,V,,,,,,,040624,,,N*7C

[2024-06-04 16:57:21.963414] $GPRMC,141718.00,V,,,,,,,040624,,,N*73

[2024-06-04 16:57:22.967928] $GPRMC,141719.00,V,,,,,,,040624,,,N*72

[2024-06-04 16:57:23.960394] $GPRMC,141720.00,V,,,,,,,040624,,,N*78

[2024-06-04 16:57:25.122990] $GPRMC,141721.00,V,,,,,,,040624,,,N*79

[2024-06-04 16:57:25.961292] $GPRMC,141722.00,V,,,,,,,040624,,,N*7A

[2024-06-04 16:57:26.961473] $GPRMC,141723.00,V,,,,,,,040624,,,N*7B

[2024-06-04 16:57:27.962136] $GPRMC,141724.00,V,,,,,,,040624,,,N*7C

[2024-06-04 16:57:28.961130] $GPRMC,141725.00,V,,,,,,,040624,,,N*7D

[2024-06-04 16:57:29.962247] $GPRMC,141726.00,V,,,,,,,040624,,,N*7E

[2024-06-04 16:57:31.128151] $GPRMC,141727.00,V,,,,,,,040624,,,N*7F

[2024-06-04 16:57:31.962623] $GPRMC,141728.00,V,,,,,,,040624,,,N*70

[2024-06-04 16:57:32.962136] $GPRMC,141729.00,V,,,,,,,040624,,,N*71

[2024-06-04 16:57:33.961490] $GPRMC,141730.00,V,,,,,,,040624,,,N*79

[2024-06-04 16:57:34.961032] $GPRMC,141731.00,V,,,,,,,040624,,,N*78

[2024-06-04 16:57:35.962244] $GPRMC,141732.00,V,,,,,,,040624,,,N*7B

[2024-06-04 16:57:37.128540] $GPRMC,141733.00,V,,,,,,,040624,,,N*7A

[2024-06-04 16:57:37.960629] $GPRMC,141734.00,V,,,,,,,040624,,,N*7D

[2024-06-04 16:57:38.965501] $GPRMC,141735.00,V,,,,,,,040624,,,N*7C

[2024-06-04 16:57:39.962300] $GPRMC,141736.00,V,,,,,,,040624,,,N*7F

[2024-06-04 16:57:40.963123] $GPRMC,141737.00,V,,,,,,,040624,,,N*7E

[2024-06-04 16:57:41.962555] $GPRMC,141738.00,V,,,,,,,040624,,,N*71

[2024-06-04 16:57:43.128663] $GPRMC,141739.00,V,,,,,,,040624,,,N*70

[2024-06-04 16:57:43.962843] $GPRMC,141740.00,V,,,,,,,040624,,,N*7E

[2024-06-04 16:57:44.962248] $GPRMC,141741.00,V,,,,,,,040624,,,N*7F

[2024-06-04 16:57:45.962570] $GPRMC,141742.00,V,,,,,,,040624,,,N*7C

[2024-06-04 16:57:46.963355] $GPRMC,141743.00,V,,,,,,,040624,,,N*7D

[2024-06-04 16:57:47.964428] $GPRMC,141744.00,V,,,,,,,040624,,,N*7A

[2024-06-04 16:57:49.129689] $GPRMC,141745.00,V,,,,,,,040624,,,N*7B

[2024-06-04 16:57:49.961777] $GPRMC,141746.00,V,,,,,,,040624,,,N*78

[2024-06-04 16:57:50.961659] $GPRMC,141747.00,V,,,,,,,040624,,,N*79

[2024-06-04 16:57:51.960406] $GPRMC,141748.00,V,,,,,,,040624,,,N*76

[2024-06-04 16:57:52.960930] $GPRMC,141749.00,V,,,,,,,040624,,,N*77

[2024-06-04 16:57:53.961790] $GPRMC,141750.00,V,,,,,,,040624,,,N*7F

[2024-06-04 16:57:55.127829] $GPRMC,141751.00,V,,,,,,,040624,,,N*7E

[2024-06-04 16:57:55.962317] $GPRMC,141752.00,V,,,,,,,040624,,,N*7D

[2024-06-04 16:57:56.962008] $GPRMC,141753.00,V,,,,,,,040624,,,N*7C

[2024-06-04 16:57:57.961713] $GPRMC,141754.00,V,,,,,,,040624,,,N*7B

[2024-06-04 16:57:58.960840] $GPRMC,141755.00,V,,,,,,,040624,,,N*7A

[2024-06-04 16:57:59.961346] $GPRMC,141756.00,V,,,,,,,040624,,,N*79

[2024-06-04 16:58:01.127575] $GPRMC,141757.00,V,,,,,,,040624,,,N*78

[2024-06-04 16:58:01.959904] $GPRMC,141758.00,V,,,,,,,040624,,,N*77

[2024-06-04 16:58:02.962998] $GPRMC,141759.00,V,,,,,,,040624,,,N*76

[2024-06-04 16:58:03.962320] $GPRMC,141800.00,V,,,,,,,040624,,,N*75

[2024-06-04 16:58:04.960294] $GPRMC,141801.00,V,,,,,,,040624,,,N*74

[2024-06-04 16:58:05.960603] $GPRMC,141802.00,V,,,,,,,040624,,,N*77

[2024-06-04 16:58:07.127881] $GPRMC,141803.00,V,,,,,,,040624,,,N*76

[2024-06-04 16:58:07.960773] $GPRMC,141804.00,V,,,,,,,040624,,,N*71

[2024-06-04 16:58:08.961615] $GPRMC,141805.00,V,,,,,,,040624,,,N*70

[2024-06-04 16:58:09.960588] $GPRMC,141806.00,V,,,,,,,040624,,,N*73

[2024-06-04 16:58:10.960941] $GPRMC,141807.00,V,,,,,,,040624,,,N*72

[2024-06-04 16:58:11.962475] $GPRMC,141808.00,V,,,,,,,040624,,,N*7D

[2024-06-04 16:58:13.130642] $GPRMC,141809.00,V,,,,,,,040624,,,N*7C

[2024-06-04 16:58:13.963250] $GPRMC,141810.00,V,,,,,,,040624,,,N*74

[2024-06-04 16:58:14.963183] $GPRMC,141811.00,V,,,,,,,040624,,,N*75

[2024-06-04 16:58:15.965330] $GPRMC,141812.00,V,,,,,,,040624,,,N*76

[2024-06-04 16:58:16.962551] $GPRMC,141813.00,V,,,,,,,040624,,,N*77

[2024-06-04 16:58:17.962937] $GPRMC,141814.00,V,,,,,,,040624,,,N*70

[2024-06-04 16:58:19.129182] $GPRMC,141815.00,V,,,,,,,040624,,,N*71

[2024-06-04 16:58:19.964013] $GPRMC,141816.00,V,,,,,,,040624,,,N*72

[2024-06-04 16:58:20.964839] $GPRMC,141817.00,V,,,,,,,040624,,,N*73

[2024-06-04 16:58:21.969151] $GPRMC,141818.00,V,,,,,,,040624,,,N*7C

[2024-06-04 16:58:22.961716] $GPRMC,141819.00,V,,,,,,,040624,,,N*7D

[2024-06-04 16:58:23.964653] $GPRMC,141820.00,V,,,,,,,040624,,,N*77

[2024-06-04 16:58:25.130058] $GPRMC,141821.00,V,,,,,,,040624,,,N*76

[2024-06-04 16:58:25.961428] $GPRMC,141822.00,V,,,,,,,040624,,,N*75

[2024-06-04 16:58:26.960656] $GPRMC,141823.00,V,,,,,,,040624,,,N*74

[2024-06-04 16:58:27.962326] $GPRMC,141824.00,V,,,,,,,040624,,,N*73

[2024-06-04 16:58:28.964690] $GPRMC,141825.00,V,,,,,,,040624,,,N*72

[2024-06-04 16:58:29.965239] $GPRMC,141826.00,V,,,,,,,040624,,,N*71

[2024-06-04 16:58:31.130781] $GPRMC,141827.00,V,,,,,,,040624,,,N*70

[2024-06-04 16:58:31.964481] $GPRMC,141828.00,V,,,,,,,040624,,,N*7F

[2024-06-04 16:58:32.965303] $GPRMC,141829.00,V,,,,,,,040624,,,N*7E

[2024-06-04 16:58:33.962557] $GPRMC,141830.00,V,,,,,,,040624,,,N*76

[2024-06-04 16:58:34.963319] $GPRMC,141831.00,V,,,,,,,040624,,,N*77

[2024-06-04 16:58:35.963118] $GPRMC,141832.00,V,,,,,,,040624,,,N*74

[2024-06-04 16:58:37.129910] $GPRMC,141833.00,V,,,,,,,040624,,,N*75

[2024-06-04 16:58:37.965971] $GPRMC,141834.00,V,,,,,,,040624,,,N*72

[2024-06-04 16:58:38.961901] $GPRMC,141835.00,V,,,,,,,040624,,,N*73

[2024-06-04 16:58:39.964131] $GPRMC,141836.00,V,,,,,,,040624,,,N*70

[2024-06-04 16:58:40.962196] $GPRMC,141837.00,V,,,,,,,040624,,,N*71

[2024-06-04 16:58:41.962695] $GPRMC,141838.00,V,,,,,,,040624,,,N*7E

[2024-06-04 16:58:43.132991] $GPRMC,141839.00,V,,,,,,,040624,,,N*7F

[2024-06-04 16:58:43.963033] $GPRMC,141840.00,V,,,,,,,040624,,,N*71

[2024-06-04 16:58:44.963091] $GPRMC,141841.00,V,,,,,,,040624,,,N*70

[2024-06-04 16:58:45.965851] $GPRMC,141842.00,V,,,,,,,040624,,,N*73

[2024-06-04 16:58:46.965934] $GPRMC,141843.00,V,,,,,,,040624,,,N*72

[2024-06-04 16:58:47.965341] $GPRMC,141844.00,V,,,,,,,040624,,,N*75

[2024-06-04 16:58:49.130445] $GPRMC,141845.00,V,,,,,,,040624,,,N*74

[2024-06-04 16:58:49.962815] $GPRMC,141846.00,V,,,,,,,040624,,,N*77

[2024-06-04 16:58:50.963281] $GPRMC,141847.00,V,,,,,,,040624,,,N*76

[2024-06-04 16:58:51.963003] $GPRMC,141848.00,V,,,,,,,040624,,,N*79

[2024-06-04 16:58:52.962591] $GPRMC,141849.00,V,,,,,,,040624,,,N*78

[2024-06-04 16:58:53.965644] $GPRMC,141850.00,V,,,,,,,040624,,,N*70

[2024-06-04 16:58:55.129462] $GPRMC,141851.00,V,,,,,,,040624,,,N*71

[2024-06-04 16:58:55.963134] $GPRMC,141852.00,V,,,,,,,040624,,,N*72

[2024-06-04 16:58:56.962424] $GPRMC,141853.00,V,,,,,,,040624,,,N*73

[2024-06-04 16:58:57.962263] $GPRMC,141854.00,V,,,,,,,040624,,,N*74

[2024-06-04 16:58:58.962109] $GPRMC,141855.00,V,,,,,,,040624,,,N*75

[2024-06-04 16:58:59.962623] $GPRMC,141856.00,V,,,,,,,040624,,,N*76

[2024-06-04 16:59:01.129995] $GPRMC,141857.00,V,,,,,,,040624,,,N*77

[2024-06-04 16:59:01.961985] $GPRMC,141858.00,V,,,,,,,040624,,,N*78

[2024-06-04 16:59:02.962784] $GPRMC,141859.00,V,,,,,,,040624,,,N*79

[2024-06-04 16:59:03.962998] $GPRMC,141900.00,V,,,,,,,040624,,,N*74

[2024-06-04 16:59:04.962484] $GPRMC,141901.00,V,,,,,,,040624,,,N*75

[2024-06-04 16:59:05.963358] $GPRMC,141902.00,V,,,,,,,040624,,,N*76

[2024-06-04 16:59:07.129418] $GPRMC,141903.00,V,,,,,,,040624,,,N*77

[2024-06-04 16:59:07.965522] $GPRMC,141904.00,V,,,,,,,040624,,,N*70

[2024-06-04 16:59:08.962856] $GPRMC,141905.00,V,,,,,,,040624,,,N*71

[2024-06-04 16:59:09.964702] $GPRMC,141906.00,V,,,,,,,040624,,,N*72

[2024-06-04 16:59:10.966437] $GPRMC,141907.00,V,,,,,,,040624,,,N*73

[2024-06-04 16:59:11.966694] $GPRMC,141908.00,V,,,,,,,040624,,,N*7C

[2024-06-04 16:59:13.128746] $GPRMC,141909.00,V,,,,,,,040624,,,N*7D

[2024-06-04 16:59:13.962659] $GPRMC,141910.00,V,,,,,,,040624,,,N*75

[2024-06-04 16:59:14.962532] $GPRMC,141911.00,V,,,,,,,040624,,,N*74

[2024-06-04 16:59:15.962749] $GPRMC,141912.00,V,,,,,,,040624,,,N*77

[2024-06-04 16:59:16.965586] $GPRMC,141913.00,V,,,,,,,040624,,,N*76

[2024-06-04 16:59:17.963149] $GPRMC,141914.00,V,,,,,,,040624,,,N*71

[2024-06-04 16:59:19.132167] $GPRMC,141915.00,V,,,,,,,040624,,,N*70

[2024-06-04 16:59:19.963161] $GPRMC,141916.00,V,,,,,,,040624,,,N*73

[2024-06-04 16:59:20.968110] $GPRMC,141917.00,V,,,,,,,040624,,,N*72

[2024-06-04 16:59:21.961809] $GPRMC,141918.00,V,,,,,,,040624,,,N*7D

[2024-06-04 16:59:22.966275] $GPRMC,141919.00,V,,,,,,,040624,,,N*7C

[2024-06-04 16:59:23.966773] $GPRMC,141920.00,V,,,,,,,040624,,,N*76

[2024-06-04 16:59:25.131281] $GPRMC,141921.00,V,,,,,,,040624,,,N*77

[2024-06-04 16:59:25.961433] $GPRMC,141922.00,V,,,,,,,040624,,,N*74

[2024-06-04 16:59:26.963099] $GPRMC,141923.00,V,,,,,,,040624,,,N*75

[2024-06-04 16:59:27.961056] $GPRMC,141924.00,V,,,,,,,040624,,,N*72

[2024-06-04 16:59:28.961886] $GPRMC,141925.00,V,,,,,,,040624,,,N*73

[2024-06-04 16:59:29.962318] $GPRMC,141926.00,V,,,,,,,040624,,,N*70

[2024-06-04 16:59:31.131474] $GPRMC,141927.00,V,,,,,,,040624,,,N*71

[2024-06-04 16:59:31.965516] $GPRMC,141928.00,V,,,,,,,040624,,,N*7E

[2024-06-04 16:59:32.967185] $GPRMC,141929.00,V,,,,,,,040624,,,N*7F

[2024-06-04 16:59:33.961483] $GPRMC,141930.00,V,,,,,,,040624,,,N*77

[2024-06-04 16:59:34.961397] $GPRMC,141931.00,V,,,,,,,040624,,,N*76

[2024-06-04 16:59:35.963215] $GPRMC,141932.00,V,,,,,,,040624,,,N*75

[2024-06-04 16:59:37.134109] $GPRMC,141933.00,V,,,,,,,040624,,,N*74

[2024-06-04 16:59:37.962389] $GPRMC,141934.00,V,,,,,,,040624,,,N*73

[2024-06-04 16:59:38.964236] $GPRMC,141935.00,V,,,,,,,040624,,,N*72

[2024-06-04 16:59:39.961992] $GPRMC,141936.00,V,,,,,,,040624,,,N*71

[2024-06-04 16:59:40.963246] $GPRMC,141937.00,V,,,,,,,040624,,,N*70

[2024-06-04 16:59:41.963513] $GPRMC,141938.00,V,,,,,,,040624,,,N*7F

[2024-06-04 16:59:43.120215] $GPRMC,141939.00,V,,,,,,,040624,,,N*7E

[2024-06-04 16:59:43.964685] $GPRMC,141940.00,V,,,,,,,040624,,,N*70

[2024-06-04 16:59:44.964379] $GPRMC,141941.00,V,,,,,,,040624,,,N*71

[2024-06-04 16:59:45.964312] $GPRMC,141942.00,V,,,,,,,040624,,,N*72

[2024-06-04 16:59:46.964003] $GPRMC,141943.00,V,,,,,,,040624,,,N*73

[2024-06-04 16:59:47.962395] $GPRMC,141944.00,V,,,,,,,040624,,,N*74

[2024-06-04 16:59:49.130317] $GPRMC,141945.00,V,,,,,,,040624,,,N*75

[2024-06-04 16:59:49.965453] $GPRMC,141946.00,V,,,,,,,040624,,,N*76

[2024-06-04 16:59:50.962381] $GPRMC,141947.00,V,,,,,,,040624,,,N*77

[2024-06-04 16:59:51.962520] $GPRMC,141948.00,V,,,,,,,040624,,,N*78

[2024-06-04 16:59:52.963725] $GPRMC,141949.00,V,,,,,,,040624,,,N*79

[2024-06-04 16:59:53.963751] $GPRMC,141950.00,V,,,,,,,040624,,,N*71

[2024-06-04 16:59:55.133734] $GPRMC,141951.00,V,,,,,,,040624,,,N*70

[2024-06-04 16:59:55.962037] $GPRMC,141952.00,V,,,,,,,040624,,,N*73

[2024-06-04 16:59:56.968349] $GPRMC,141953.00,V,,,,,,,040624,,,N*72

[2024-06-04 16:59:57.965420] $GPRMC,141954.00,V,,,,,,,040624,,,N*75

[2024-06-04 16:59:58.965755] $GPRMC,141955.00,V,,,,,,,040624,,,N*74

[2024-06-04 16:59:59.965664] $GPRMC,141956.00,V,,,,,,,040624,,,N*77

[2024-06-04 17:00:01.130838] $GPRMC,141957.00,V,,,,,,,040624,,,N*76

[2024-06-04 17:00:01.966364] $GPRMC,141958.00,V,,,,,,,040624,,,N*79

[2024-06-04 17:00:02.965594] $GPRMC,141959.00,V,,,,,,,040624,,,N*78

[2024-06-04 17:00:03.966518] $GPRMC,142000.00,V,,,,,,,040624,,,N*7E

[2024-06-04 17:00:05.80552] $GPRMC,142001.00,V,,,,,,,040624,,,N*7F

[2024-06-04 17:00:05.980914] $GPRMC,142002.00,V,,,,,,,040624,,,N*7C

[2024-06-04 17:00:07.174863] $GPRMC,142003.00,V,,,,,,,040624,,,N*7D

[2024-06-04 17:00:08.8770] $GPRMC,142004.00,V,,,,,,,040624,,,N*7A

[2024-06-04 17:00:09.6497] $GPRMC,142005.00,V,,,,,,,040624,,,N*7B

[2024-06-04 17:00:10.25020] $GPRMC,142006.00,V,,,,,,,040624,,,N*78

[2024-06-04 17:00:11.30883] $GPRMC,142007.00,V,,,,,,,040624,,,N*79

[2024-06-04 17:00:12.13299] $GPRMC,142008.00,V,,,,,,,040624,,,N*76

[2024-06-04 17:00:13.176046] $GPRMC,142009.00,V,,,,,,,040624,,,N*77

[2024-06-04 17:00:14.10992] $GPRMC,142010.00,V,,,,,,,040624,,,N*7F

[2024-06-04 17:00:15.12455] $GPRMC,142011.00,V,,,,,,,040624,,,N*7E

[2024-06-04 17:00:16.13941] $GPRMC,142012.00,V,,,,,,,040624,,,N*7D

[2024-06-04 17:00:17.12892] $GPRMC,142013.00,V,,,,,,,040624,,,N*7C

[2024-06-04 17:00:18.15087] $GPRMC,142014.00,V,,,,,,,040624,,,N*7B

[2024-06-04 17:00:19.179695] $GPRMC,142015.00,V,,,,,,,040624,,,N*7A

[2024-06-04 17:00:20.10943] $GPRMC,142016.00,V,,,,,,,040624,,,N*79

[2024-06-04 17:00:21.3622] $GPRMC,142017.00,V,,,,,,,040624,,,N*78

[2024-06-04 17:00:22.4761] $GPRMC,142018.00,V,,,,,,,040624,,,N*77

[2024-06-04 17:00:23.6169] $GPRMC,142019.00,V,,,,,,,040624,,,N*76

[2024-06-04 17:00:24.4577] $GPRMC,142020.00,V,,,,,,,040624,,,N*7C

[2024-06-04 17:00:25.164090] $GPRMC,142021.00,V,,,,,,,040624,,,N*7D

[2024-06-04 17:00:26.5774] $GPRMC,142022.00,V,,,,,,,040624,,,N*7E

[2024-06-04 17:00:27.33228] $GPRMC,142023.00,V,,,,,,,040624,,,N*7F

[2024-06-04 17:00:28.34584] $GPRMC,142024.00,V,,,,,,,040624,,,N*78

[2024-06-04 17:00:29.7979] $GPRMC,142025.00,V,,,,,,,040624,,,N*79

[2024-06-04 17:00:30.10572] $GPRMC,142026.00,V,,,,,,,040624,,,N*7A

[2024-06-04 17:00:31.147082] $GPRMC,142027.00,V,,,,,,,040624,,,N*7B

[2024-06-04 17:00:31.983080] $GPRMC,142028.00,V,,,,,,,040624,,,N*74

[2024-06-04 17:00:32.985943] $GPRMC,142029.00,V,,,,,,,040624,,,N*75

[2024-06-04 17:00:33.984657] $GPRMC,142030.00,V,,,,,,,040624,,,N*7D

[2024-06-04 17:00:34.981035] $GPRMC,142031.00,V,,,,,,,040624,,,N*7C

[2024-06-04 17:00:35.984819] $GPRMC,142032.00,V,,,,,,,040624,,,N*7F

[2024-06-04 17:00:37.144958] $GPRMC,142033.00,V,,,,,,,040624,,,N*7E

[2024-06-04 17:00:37.980800] $GPRMC,142034.00,V,,,,,,,040624,,,N*79

[2024-06-04 17:00:39.31250] $GPRMC,142035.00,V,,,,,,,040624,,,N*78

[2024-06-04 17:00:40.31187] $GPRMC,142036.00,V,,,,,,,040624,,,N*7B

[2024-06-04 17:00:41.13407] $GPRMC,142037.00,V,,,,,,,040624,,,N*7A

[2024-06-04 17:00:42.11424] $GPRMC,142038.00,V,,,,,,,040624,,,N*75

[2024-06-04 17:00:43.182979] $GPRMC,142039.00,V,,,,,,,040624,,,N*74

[2024-06-04 17:00:43.981945] $GPRMC,142040.00,V,,,,,,,040624,,,N*7A

[2024-06-04 17:00:45.10850] $GPRMC,142041.00,V,,,,,,,040624,,,N*7B

[2024-06-04 17:00:46.8134] $GPRMC,142042.00,V,,,,,,,040624,,,N*78

[2024-06-04 17:00:47.9534] $GPRMC,142043.00,V,,,,,,,040624,,,N*79

[2024-06-04 17:00:48.10449] $GPRMC,142044.00,V,,,,,,,040624,,,N*7E

[2024-06-04 17:00:49.174171] $GPRMC,142045.00,V,,,,,,,040624,,,N*7F

[2024-06-04 17:00:50.3639] $GPRMC,142046.00,V,,,,,,,040624,,,N*7C

[2024-06-04 17:00:51.8668] $GPRMC,142047.00,V,,,,,,,040624,,,N*7D

[2024-06-04 17:00:52.7992] $GPRMC,142048.00,V,,,,,,,040624,,,N*72

[2024-06-04 17:00:53.8394] $GPRMC,142049.00,V,,,,,,,040624,,,N*73

[2024-06-04 17:00:53.981103] $GPRMC,142050.00,V,,,,,,,040624,,,N*7B

[2024-06-04 17:00:55.155355] $GPRMC,142051.00,V,,,,,,,040624,,,N*7A

[2024-06-04 17:00:56.8194] $GPRMC,142052.00,V,,,,,,,040624,,,N*79

[2024-06-04 17:00:56.980650] $GPRMC,142053.00,V,,,,,,,040624,,,N*78

[2024-06-04 17:00:57.977008] $GPRMC,142054.00,V,,,,,,,040624,,,N*7F

[2024-06-04 17:00:58.977355] $GPRMC,142055.00,V,,,,,,,040624,,,N*7E

[2024-06-04 17:00:59.973306] $GPRMC,142056.00,V,,,,,,,040624,,,N*7D

[2024-06-04 17:01:01.135473] $GPRMC,142057.00,V,,,,,,,040624,,,N*7C

[2024-06-04 17:01:01.973682] $GPRMC,142058.00,V,,,,,,,040624,,,N*73

[2024-06-04 17:01:02.977561] $GPRMC,142059.00,V,,,,,,,040624,,,N*72

[2024-06-04 17:01:03.974334] $GPRMC,142100.00,V,,,,,,,040624,,,N*7F

[2024-06-04 17:01:04.975127] $GPRMC,142101.00,V,,,,,,,040624,,,N*7E

[2024-06-04 17:01:05.975416] $GPRMC,142102.00,V,,,,,,,040624,,,N*7D

[2024-06-04 17:01:07.83078] $GPRMC,142103.00,V,,,,,,,040624,,,N*7C

[2024-06-04 17:01:07.982638] $GPRMC,142104.00,V,,,,,,,040624,,,N*7B

[2024-06-04 17:01:08.986347] $GPRMC,142105.00,V,,,,,,,040624,,,N*7A

[2024-06-04 17:01:09.985759] $GPRMC,142106.00,V,,,,,,,040624,,,N*79

[2024-06-04 17:01:10.985977] $GPRMC,142107.00,V,,,,,,,040624,,,N*78

[2024-06-04 17:01:11.523569] $GPRMC,142107.50,V,,,,,,,040624,,,N*7D

[2024-06-04 17:01:11.993753] $GPRMC,142108.00,V,,,,,,,040624,,,N*77

[2024-06-04 17:01:12.984492] $GPRMC,142109.00,V,,,,,,,040624,,,N*76

[2024-06-04 17:01:13.994578] $GPRMC,142110.00,V,,,,,,,040624,,,N*7E

[2024-06-04 17:01:14.986014] $GPRMC,142111.00,V,,,,,,,040624,,,N*7F

[2024-06-04 17:01:15.973290] $GPRMC,142112.00,V,,,,,,,040624,,,N*7C

[2024-06-04 17:01:16.971789] $GPRMC,142113.00,V,,,,,,,040624,,,N*7D

[2024-06-04 17:01:17.972736] $GPRMC,142114.00,V,,,,,,,040624,,,N*7A

[2024-06-04 17:01:18.972539] $GPRMC,142115.00,V,,,,,,,040624,,,N*7B

[2024-06-04 17:01:19.982799] $GPRMC,142116.00,V,,,,,,,040624,,,N*78

[2024-06-04 17:01:20.972033] $GPRMC,142117.00,V,,,,,,,040624,,,N*79

[2024-06-04 17:01:21.973962] $GPRMC,142118.00,V,,,,,,,040624,,,N*76

[2024-06-04 17:01:22.975169] $GPRMC,142119.00,V,,,,,,,040624,,,N*77

[2024-06-04 17:01:23.974514] $GPRMC,142120.00,V,,,,,,,040624,,,N*7D

[2024-06-04 17:01:24.981540] $GPRMC,142121.00,V,,,,,,,040624,,,N*7C

[2024-06-04 17:01:25.974962] $GPRMC,142122.00,V,,,,,,,040624,,,N*7F

[2024-06-04 17:01:26.975191] $GPRMC,142123.00,V,,,,,,,040624,,,N*7E

[2024-06-04 17:01:27.973052] $GPRMC,142124.00,V,,,,,,,040624,,,N*79

[2024-06-04 17:01:28.973041] $GPRMC,142125.00,V,,,,,,,040624,,,N*78

[2024-06-04 17:01:29.972998] $GPRMC,142126.00,V,,,,,,,040624,,,N*7B

[2024-06-04 17:01:31.131592] $GPRMC,142127.00,V,,,,,,,040624,,,N*7A

[2024-06-04 17:01:31.985922] $GPRMC,142128.00,V,,,,,,,040624,,,N*75

[2024-06-04 17:01:32.984197] $GPRMC,142129.00,V,,,,,,,040624,,,N*74

[2024-06-04 17:01:33.984947] $GPRMC,142130.00,V,,,,,,,040624,,,N*7C

[2024-06-04 17:01:34.973239] $GPRMC,142131.00,V,,,,,,,040624,,,N*7D

[2024-06-04 17:01:35.975620] $GPRMC,142132.00,V,,,,,,,040624,,,N*7E

[2024-06-04 17:01:36.973270] $GPRMC,142133.00,V,,,,,,,040624,,,N*7F

[2024-06-04 17:01:37.973793] $GPRMC,142134.00,V,,,,,,,040624,,,N*78

[2024-06-04 17:01:38.973085] $GPRMC,142135.00,V,,,,,,,040624,,,N*79

[2024-06-04 17:01:39.976803] $GPRMC,142136.00,V,,,,,,,040624,,,N*7A

[2024-06-04 17:01:40.982862] $GPRMC,142137.00,V,,,,,,,040624,,,N*7B

[2024-06-04 17:01:41.990403] $GPRMC,142138.00,V,,,,,,,040624,,,N*74

[2024-06-04 17:01:42.986694] $GPRMC,142139.00,V,,,,,,,040624,,,N*75

[2024-06-04 17:01:43.995256] $GPRMC,142140.00,V,,,,,,,040624,,,N*7B

[2024-06-04 17:01:44.986063] $GPRMC,142141.00,V,,,,,,,040624,,,N*7A

[2024-06-04 17:01:45.986034] $GPRMC,142142.00,V,,,,,,,040624,,,N*79

[2024-06-04 17:01:46.985278] $GPRMC,142143.00,V,,,,,,,040624,,,N*78

[2024-06-04 17:01:47.985986] $GPRMC,142144.00,V,,,,,,,040624,,,N*7F

[2024-06-04 17:01:48.985155] $GPRMC,142145.00,V,,,,,,,040624,,,N*7E

[2024-06-04 17:01:49.984579] $GPRMC,142146.00,V,,,,,,,040624,,,N*7D

[2024-06-04 17:01:50.986570] $GPRMC,142147.00,V,,,,,,,040624,,,N*7C

[2024-06-04 17:01:51.984162] $GPRMC,142148.00,V,,,,,,,040624,,,N*73

[2024-06-04 17:01:52.986650] $GPRMC,142149.00,V,,,,,,,040624,,,N*72

[2024-06-04 17:01:53.987207] $GPRMC,142150.00,V,,,,,,,040624,,,N*7A

[2024-06-04 17:01:54.984108] $GPRMC,142151.00,V,,,,,,,040624,,,N*7B

[2024-06-04 17:01:55.987428] $GPRMC,142152.00,V,,,,,,,040624,,,N*78

[2024-06-04 17:01:56.985553] $GPRMC,142153.00,V,,,,,,,040624,,,N*79

[2024-06-04 17:01:57.985261] $GPRMC,142154.00,V,,,,,,,040624,,,N*7E

[2024-06-04 17:01:58.985331] $GPRMC,142155.00,V,,,,,,,040624,,,N*7F

[2024-06-04 17:01:59.985185] $GPRMC,142156.00,V,,,,,,,040624,,,N*7C

[2024-06-04 17:02:00.985522] $GPRMC,142157.00,V,,,,,,,040624,,,N*7D

[2024-06-04 17:02:01.987980] $GPRMC,142158.00,V,,,,,,,040624,,,N*72

[2024-06-04 17:02:02.990254] $GPRMC,142159.00,V,,,,,,,040624,,,N*73

[2024-06-04 17:02:03.989777] $GPRMC,142200.00,V,,,,,,,040624,,,N*7C

[2024-06-04 17:02:04.985592] $GPRMC,142201.00,V,,,,,,,040624,,,N*7D

[2024-06-04 17:02:05.986810] $GPRMC,142202.00,V,,,,,,,040624,,,N*7E

[2024-06-04 17:02:06.987851] $GPRMC,142203.00,V,,,,,,,040624,,,N*7F

[2024-06-04 17:02:07.988767] $GPRMC,142204.00,V,,,,,,,040624,,,N*78

[2024-06-04 17:02:08.987586] $GPRMC,142205.00,V,,,,,,,040624,,,N*79

[2024-06-04 17:02:09.987992] $GPRMC,142206.00,V,,,,,,,040624,,,N*7A

[2024-06-04 17:02:10.987679] $GPRMC,142207.00,V,,,,,,,040624,,,N*7B

[2024-06-04 17:02:11.987721] $GPRMC,142208.00,V,,,,,,,040624,,,N*74

[2024-06-04 17:02:12.986717] $GPRMC,142209.00,V,,,,,,,040624,,,N*75

[2024-06-04 17:02:13.990718] $GPRMC,142210.00,V,,,,,,,040624,,,N*7D

[2024-06-04 17:02:14.990519] $GPRMC,142211.00,V,,,,,,,040624,,,N*7C

[2024-06-04 17:02:15.988326] $GPRMC,142212.00,V,,,,,,,040624,,,N*7F

[2024-06-04 17:02:16.986503] $GPRMC,142213.00,V,,,,,,,040624,,,N*7E

[2024-06-04 17:02:17.987811] $GPRMC,142214.00,V,,,,,,,040624,,,N*79

[2024-06-04 17:02:18.987789] $GPRMC,142215.00,V,,,,,,,040624,,,N*78

[2024-06-04 17:02:19.998962] $GPRMC,142216.00,V,,,,,,,040624,,,N*7B

[2024-06-04 17:02:20.988930] $GPRMC,142217.00,V,,,,,,,040624,,,N*7A

[2024-06-04 17:02:21.990639] $GPRMC,142218.00,V,,,,,,,040624,,,N*75

[2024-06-04 17:02:22.989376] $GPRMC,142219.00,V,,,,,,,040624,,,N*74

[2024-06-04 17:02:23.989477] $GPRMC,142220.00,V,,,,,,,040624,,,N*7E

[2024-06-04 17:02:24.989628] $GPRMC,142221.00,V,,,,,,,040624,,,N*7F

[2024-06-04 17:02:25.988987] $GPRMC,142222.00,V,,,,,,,040624,,,N*7C

[2024-06-04 17:02:26.989412] $GPRMC,142223.00,V,,,,,,,040624,,,N*7D

[2024-06-04 17:02:27.977058] $GPRMC,142224.00,V,,,,,,,040624,,,N*7A

[2024-06-04 17:02:28.976937] $GPRMC,142225.00,V,,,,,,,040624,,,N*7B

[2024-06-04 17:02:29.979095] $GPRMC,142226.00,V,,,,,,,040624,,,N*78

[2024-06-04 17:02:30.977655] $GPRMC,142227.00,V,,,,,,,040624,,,N*79

[2024-06-04 17:02:31.978990] $GPRMC,142228.00,V,,,,,,,040624,,,N*76

[2024-06-04 17:02:32.977063] $GPRMC,142229.00,V,,,,,,,040624,,,N*77

[2024-06-04 17:02:33.980144] $GPRMC,142230.00,V,,,,,,,040624,,,N*7F

[2024-06-04 17:02:34.992340] $GPRMC,142231.00,V,,,,,,,040624,,,N*7E

[2024-06-04 17:02:35.997709] $GPRMC,142232.00,V,,,,,,,040624,,,N*7D

[2024-06-04 17:02:36.977919] $GPRMC,142233.00,V,,,,,,,040624,,,N*7C

[2024-06-04 17:02:37.996660] $GPRMC,142234.00,V,,,,,,,040624,,,N*7B

[2024-06-04 17:02:38.989077] $GPRMC,142235.00,V,,,,,,,040624,,,N*7A

[2024-06-04 17:02:39.990021] $GPRMC,142236.00,V,,,,,,,040624,,,N*79

[2024-06-04 17:02:40.989091] $GPRMC,142237.00,V,,,,,,,040624,,,N*78

[2024-06-04 17:02:41.992296] $GPRMC,142238.00,V,,,,,,,040624,,,N*77

[2024-06-04 17:02:42.985960] $GPRMC,142239.00,V,,,,,,,040624,,,N*76

[2024-06-04 17:02:43.993377] $GPRMC,142240.00,V,,,,,,,040624,,,N*78

[2024-06-04 17:02:44.988308] $GPRMC,142241.00,V,,,,,,,040624,,,N*79

[2024-06-04 17:02:46.26881] $GPRMC,142242.00,V,,,,,,,040624,,,N*7A

[2024-06-04 17:02:46.989625] $GPRMC,142243.00,V,,,,,,,040624,,,N*7B

[2024-06-04 17:02:47.990160] $GPRMC,142244.00,V,,,,,,,040624,,,N*7C

[2024-06-04 17:02:48.991204] $GPRMC,142245.00,V,,,,,,,040624,,,N*7D

[2024-06-04 17:02:49.997382] $GPRMC,142246.00,V,,,,,,,040624,,,N*7E

[2024-06-04 17:02:50.989049] $GPRMC,142247.00,V,,,,,,,040624,,,N*7F

[2024-06-04 17:02:51.993388] $GPRMC,142248.00,V,,,,,,,040624,,,N*70

[2024-06-04 17:02:52.980183] $GPRMC,142249.00,V,,,,,,,040624,,,N*71

[2024-06-04 17:02:53.982713] $GPRMC,142250.00,V,,,,,,,040624,,,N*79

[2024-06-04 17:02:54.982418] $GPRMC,142251.00,V,,,,,,,040624,,,N*78

[2024-06-04 17:02:55.999284] $GPRMC,142252.00,V,,,,,,,040624,,,N*7B

[2024-06-04 17:02:56.992657] $GPRMC,142253.00,V,,,,,,,040624,,,N*7A

[2024-06-04 17:02:57.992806] $GPRMC,142254.00,V,,,,,,,040624,,,N*7D

[2024-06-04 17:02:58.993577] $GPRMC,142255.00,V,,,,,,,040624,,,N*7C

[2024-06-04 17:02:59.998462] $GPRMC,142256.00,V,,,,,,,040624,,,N*7F

[2024-06-04 17:03:01.31905] $GPRMC,142257.00,A,3826.25003,N,02708.85422,E,1.556,,040624,,,A*7B

[2024-06-04 17:03:02.28355] $GPRMC,142258.00,A,3826.25003,N,02708.85468,E,0.324,,040624,,,A*78

[2024-06-04 17:03:03.27945] $GPRMC,142259.00,A,3826.24986,N,02708.85458,E,0.167,,040624,,,A*7A

[2024-06-04 17:03:04.32365] $GPRMC,142300.00,A,3826.24976,N,02708.85459,E,0.237,,040624,,,A*7F

[2024-06-04 17:03:05.30942] $GPRMC,142301.00,A,3826.24968,N,02708.85458,E,0.111,,040624,,,A*77

[2024-06-04 17:03:06.28647] $GPRMC,142302.00,A,3826.24960,N,02708.85445,E,0.094,,040624,,,A*7C

[2024-06-04 17:03:07.25832] $GPRMC,142303.00,A,3826.24956,N,02708.85420,E,0.076,,040624,,,A*77

[2024-06-04 17:03:08.29366] $GPRMC,142304.00,A,3826.24953,N,02708.85401,E,0.236,,040624,,,A*70

[2024-06-04 17:03:09.29300] $GPRMC,142305.00,A,3826.24942,N,02708.85380,E,0.105,,040624,,,A*7C

[2024-06-04 17:03:10.29420] $GPRMC,142306.00,A,3826.24941,N,02708.85373,E,1.555,312.61,040624,,,A*69

[2024-06-04 17:03:11.33060] $GPRMC,142307.00,A,3826.24941,N,02708.85344,E,1.022,,040624,,,A*70

[2024-06-04 17:03:12.28063] $GPRMC,142308.00,A,3826.24940,N,02708.85316,E,0.318,,040624,,,A*72

[2024-06-04 17:03:13.26032] $GPRMC,142309.00,A,3826.24935,N,02708.85308,E,0.225,,040624,,,A*71

[2024-06-04 17:03:14.37640] $GPRMC,142310.00,A,3826.24947,N,02708.85325,E,0.730,,040624,,,A*72

[2024-06-04 17:03:15.28633] $GPRMC,142311.00,A,3826.24946,N,02708.85320,E,0.212,,040624,,,A*72

[2024-06-04 17:03:16.30570] $GPRMC,142312.00,A,3826.24942,N,02708.85317,E,0.296,,040624,,,A*7D

[2024-06-04 17:03:16.996448] $GPRMC,142313.00,V,,,,,,,040624,,,N*7F

[2024-06-04 17:03:17.996139] $GPRMC,142314.00,V,,,,,,,040624,,,N*78

[2024-06-04 17:03:18.993170] $GPRMC,142315.00,V,,,,,,,040624,,,N*79

[2024-06-04 17:03:19.999355] $GPRMC,142316.00,V,,,,,,,040624,,,N*7A

[2024-06-04 17:03:20.992470] $GPRMC,142317.00,V,,,,,,,040624,,,N*7B

[2024-06-04 17:03:21.991576] $GPRMC,142318.00,V,,,,,,,040624,,,N*74

[2024-06-04 17:03:22.996323] $GPRMC,142319.00,V,,,,,,,040624,,,N*75

[2024-06-04 17:03:23.999438] $GPRMC,142320.00,V,,,,,,,040624,,,N*7F

[2024-06-04 17:03:24.991941] $GPRMC,142321.00,V,,,,,,,040624,,,N*7E

[2024-06-04 17:03:25.991497] $GPRMC,142322.00,V,,,,,,,040624,,,N*7D

[2024-06-04 17:03:26.990664] $GPRMC,142323.00,V,,,,,,,040624,,,N*7C

[2024-06-04 17:03:27.991068] $GPRMC,142324.00,V,,,,,,,040624,,,N*7B

[2024-06-04 17:03:28.990318] $GPRMC,142325.00,V,,,,,,,040624,,,N*7A

[2024-06-04 17:03:29.992911] $GPRMC,142326.00,V,,,,,,,040624,,,N*79

[2024-06-04 17:03:30.994649] $GPRMC,142327.00,V,,,,,,,040624,,,N*78

[2024-06-04 17:03:32.42366] $GPRMC,142328.00,A,3826.25249,N,02708.85447,E,3.778,347.08,040624,,,A*67

[2024-06-04 17:03:33.38970] $GPRMC,142329.00,A,3826.25310,N,02708.85512,E,3.874,357.51,040624,,,A*64

[2024-06-04 17:03:34.33551] $GPRMC,142330.00,A,3826.25444,N,02708.85495,E,4.327,356.50,040624,,,A*6E

[2024-06-04 17:03:35.33971] $GPRMC,142331.00,A,3826.25589,N,02708.85496,E,6.229,0.38,040624,,,A*6F

[2024-06-04 17:03:36.36845] $GPRMC,142332.00,A,3826.25812,N,02708.85511,E,7.405,0.50,040624,,,A*6A

[2024-06-04 17:03:37.33347] $GPRMC,142333.00,A,3826.26022,N,02708.85510,E,7.858,1.27,040624,,,A*67

[2024-06-04 17:03:38.39442] $GPRMC,142334.00,A,3826.26228,N,02708.85498,E,7.542,359.54,040624,,,A*65

[2024-06-04 17:03:39.40088] $GPRMC,142335.00,A,3826.26400,N,02708.85486,E,6.548,358.27,040624,,,A*69

[2024-06-04 17:03:40.34246] $GPRMC,142336.00,A,3826.26575,N,02708.85488,E,6.273,358.77,040624,,,A*6D

[2024-06-04 17:03:41.38196] $GPRMC,142337.00,A,3826.26758,N,02708.85495,E,6.757,359.95,040624,,,A*63

[2024-06-04 17:03:42.38513] $GPRMC,142338.00,A,3826.26985,N,02708.85545,E,7.664,2.78,040624,,,A*60

[2024-06-04 17:03:43.35527] $GPRMC,142339.00,A,3826.27217,N,02708.85560,E,8.240,1.85,040624,,,A*6B

[2024-06-04 17:03:44.37896] $GPRMC,142340.00,A,3826.27459,N,02708.85583,E,8.931,2.11,040624,,,A*67

[2024-06-04 17:03:45.32069] $GPRMC,142341.00,A,3826.27704,N,02708.85610,E,8.985,4.71,040624,,,A*6B

[2024-06-04 17:03:46.34514] $GPRMC,142342.00,A,3826.27960,N,02708.85644,E,9.699,5.44,040624,,,A*61

[2024-06-04 17:03:47.38258] $GPRMC,142343.00,A,3826.28255,N,02708.85700,E,10.358,3.82,040624,,,A*5F

[2024-06-04 17:03:48.39002] $GPRMC,142344.00,A,3826.28549,N,02708.85726,E,10.537,3.11,040624,,,A*53

[2024-06-04 17:03:49.31600] $GPRMC,142345.00,A,3826.28892,N,02708.85739,E,12.168,1.74,040624,,,A*5A

[2024-06-04 17:03:50.39621] $GPRMC,142346.00,A,3826.29248,N,02708.85735,E,12.376,359.96,040624,,,A*56

[2024-06-04 17:03:51.35223] $GPRMC,142347.00,A,3826.29588,N,02708.85715,E,11.668,357.28,040624,,,A*5C

[2024-06-04 17:03:52.36609] $GPRMC,142348.00,A,3826.29925,N,02708.85689,E,11.286,356.20,040624,,,A*51

[2024-06-04 17:03:53.33600] $GPRMC,142349.00,A,3826.30281,N,02708.85655,E,12.027,354.30,040624,,,A*55

[2024-06-04 17:03:54.36656] $GPRMC,142350.00,A,3826.30622,N,02708.85597,E,12.170,353.70,040624,,,A*5D

[2024-06-04 17:03:55.33768] $GPRMC,142351.00,A,3826.30968,N,02708.85547,E,12.184,354.01,040624,,,A*5A

[2024-06-04 17:03:56.39125] $GPRMC,142352.00,A,3826.31290,N,02708.85505,E,11.131,354.49,040624,,,A*53

[2024-06-04 17:03:57.34585] $GPRMC,142353.00,A,3826.31578,N,02708.85462,E,10.259,354.42,040624,,,A*54

[2024-06-04 17:03:58.35553] $GPRMC,142354.00,A,3826.31859,N,02708.85416,E,9.957,355.10,040624,,,A*65

[2024-06-04 17:03:59.31639] $GPRMC,142355.00,A,3826.32078,N,02708.85376,E,7.624,355.17,040624,,,A*6F

[2024-06-04 17:04:00.32533] $GPRMC,142356.00,A,3826.32302,N,02708.85365,E,8.122,355.58,040624,,,A*65

[2024-06-04 17:04:01.31136] $GPRMC,142357.00,A,3826.32522,N,02708.85387,E,7.541,358.97,040624,,,A*6C

[2024-06-04 17:04:02.32614] $GPRMC,142358.00,A,3826.32750,N,02708.85386,E,9.165,4.63,040624,,,A*68

[2024-06-04 17:04:03.29712] $GPRMC,142359.00,A,3826.33044,N,02708.85454,E,11.107,7.87,040624,,,A*56

[2024-06-04 17:04:04.33550] $GPRMC,142400.00,A,3826.33368,N,02708.85539,E,11.262,7.13,040624,,,A*57

[2024-06-04 17:04:05.30826] $GPRMC,142401.00,A,3826.33722,N,02708.85688,E,12.381,11.27,040624,,,A*6A

[2024-06-04 17:04:06.30283] $GPRMC,142402.00,A,3826.34063,N,02708.85820,E,12.683,15.58,040624,,,A*6B

[2024-06-04 17:04:07.31456] $GPRMC,142403.00,A,3826.34406,N,02708.86028,E,12.962,21.92,040624,,,A*6F

[2024-06-04 17:04:08.34724] $GPRMC,142404.00,A,3826.34741,N,02708.86239,E,12.601,25.06,040624,,,A*69

[2024-06-04 17:04:09.34475] $GPRMC,142405.00,A,3826.35054,N,02708.86442,E,12.290,27.02,040624,,,A*6A

[2024-06-04 17:04:10.37789] $GPRMC,142406.00,A,3826.35353,N,02708.86699,E,12.105,31.80,040624,,,A*6B

[2024-06-04 17:04:11.34861] $GPRMC,142407.00,A,3826.35651,N,02708.87041,E,13.438,39.80,040624,,,A*6D

[2024-06-04 17:04:12.32877] $GPRMC,142408.00,A,3826.35965,N,02708.87474,E,15.201,45.28,040624,,,A*6B

[2024-06-04 17:04:13.36603] $GPRMC,142409.00,A,3826.36232,N,02708.87964,E,16.411,54.05,040624,,,A*67

[2024-06-04 17:04:14.34645] $GPRMC,142410.00,A,3826.36477,N,02708.88513,E,17.342,60.30,040624,,,A*6A

[2024-06-04 17:04:15.32667] $GPRMC,142411.00,A,3826.36741,N,02708.89064,E,17.640,58.59,040624,,,A*6A

[2024-06-04 17:04:16.33749] $GPRMC,142412.00,A,3826.36983,N,02708.89694,E,19.145,63.96,040624,,,A*67

[2024-06-04 17:04:17.35646] $GPRMC,142413.00,A,3826.37247,N,02708.90290,E,18.835,63.98,040624,,,A*6D

[2024-06-04 17:04:18.36048] $GPRMC,142414.00,A,3826.37485,N,02708.90898,E,18.679,65.53,040624,,,A*67

[2024-06-04 17:04:19.30469] $GPRMC,142415.00,A,3826.37699,N,02708.91557,E,19.578,65.73,040624,,,A*67

[2024-06-04 17:04:20.32659] $GPRMC,142416.00,A,3826.37930,N,02708.92226,E,20.395,66.12,040624,,,A*61

[2024-06-04 17:04:21.29771] $GPRMC,142417.00,A,3826.38170,N,02708.92897,E,20.559,66.18,040624,,,A*6F

[2024-06-04 17:04:22.30617] $GPRMC,142418.00,A,3826.38413,N,02708.93546,E,19.953,65.72,040624,,,A*63

[2024-06-04 17:04:23.26843] $GPRMC,142419.00,A,3826.38661,N,02708.94195,E,20.345,64.14,040624,,,A*6E

[2024-06-04 17:04:24.28432] $GPRMC,142420.00,A,3826.38924,N,02708.94857,E,20.914,64.09,040624,,,A*6F

[2024-06-04 17:04:25.29627] $GPRMC,142421.00,A,3826.39190,N,02708.95533,E,21.619,63.85,040624,,,A*66

[2024-06-04 17:04:26.34197] $GPRMC,142422.00,A,3826.39458,N,02708.96234,E,22.056,64.66,040624,,,A*63

[2024-06-04 17:04:27.32631] $GPRMC,142423.00,A,3826.39725,N,02708.96941,E,21.963,65.20,040624,,,A*6D

[2024-06-04 17:04:28.33006] $GPRMC,142424.00,A,3826.39988,N,02708.97648,E,21.972,64.92,040624,,,A*6C

[2024-06-04 17:04:29.31643] $GPRMC,142425.00,A,3826.40245,N,02708.98346,E,21.609,65.10,040624,,,A*65

[2024-06-04 17:04:30.32040] $GPRMC,142426.00,A,3826.40494,N,02708.99026,E,21.060,65.23,040624,,,A*61

[2024-06-04 17:04:31.31808] $GPRMC,142427.00,A,3826.40731,N,02708.99706,E,20.957,66.35,040624,,,A*61

[2024-06-04 17:04:32.38733] $GPRMC,142428.00,A,3826.40968,N,02709.00368,E,20.648,66.25,040624,,,A*61

[2024-06-04 17:04:33.32875] $GPRMC,142429.00,A,3826.41198,N,02709.01036,E,20.586,67.32,040624,,,A*69

[2024-06-04 17:04:34.30870] $GPRMC,142430.00,A,3826.41440,N,02709.01682,E,20.094,65.37,040624,,,A*69

[2024-06-04 17:04:35.30817] $GPRMC,142431.00,A,3826.41656,N,02709.02356,E,20.274,67.86,040624,,,A*66

[2024-06-04 17:04:36.32981] $GPRMC,142432.00,A,3826.41876,N,02709.03029,E,20.289,67.70,040624,,,A*68

[2024-06-04 17:04:37.30137] $GPRMC,142433.00,A,3826.42097,N,02709.03701,E,20.291,67.80,040624,,,A*66

[2024-06-04 17:04:38.31952] $GPRMC,142434.00,A,3826.42296,N,02709.04366,E,19.814,70.32,040624,,,A*62

[2024-06-04 17:04:39.35895] $GPRMC,142435.00,A,3826.42500,N,02709.05059,E,20.641,68.50,040624,,,A*6C

[2024-06-04 17:04:40.32252] $GPRMC,142436.00,A,3826.42690,N,02709.05735,E,19.834,70.40,040624,,,A*66

[2024-06-04 17:04:41.31693] $GPRMC,142437.00,A,3826.42882,N,02709.06379,E,19.481,70.49,040624,,,A*6E

[2024-06-04 17:04:42.35267] $GPRMC,142438.00,A,3826.43040,N,02709.07037,E,19.459,73.59,040624,,,A*69

[2024-06-04 17:04:43.33969] $GPRMC,142439.00,A,3826.43188,N,02709.07701,E,19.591,74.78,040624,,,A*6E

[2024-06-04 17:04:44.32821] $GPRMC,142440.00,A,3826.43316,N,02709.08360,E,19.098,76.65,040624,,,A*6B

[2024-06-04 17:04:45.30779] $GPRMC,142441.00,A,3826.43436,N,02709.09021,E,19.381,77.49,040624,,,A*6C

[2024-06-04 17:04:46.35158] $GPRMC,142442.00,A,3826.43545,N,02709.09697,E,19.682,78.48,040624,,,A*69

[2024-06-04 17:04:47.31963] $GPRMC,142443.00,A,3826.43686,N,02709.10395,E,20.403,75.45,040624,,,A*6A

[2024-06-04 17:04:48.31382] $GPRMC,142444.00,A,3826.43811,N,02709.11095,E,20.370,77.73,040624,,,A*6B

[2024-06-04 17:04:49.27527] $GPRMC,142445.00,A,3826.43946,N,02709.11825,E,21.657,77.60,040624,,,A*69

[2024-06-04 17:04:50.33491] $GPRMC,142446.00,A,3826.44055,N,02709.12558,E,21.408,80.30,040624,,,A*67

[2024-06-04 17:04:51.31345] $GPRMC,142447.00,A,3826.44169,N,02709.13320,E,21.185,78.01,040624,,,A*65

[2024-06-04 17:04:52.31158] $GPRMC,142448.00,A,3826.44278,N,02709.14050,E,20.748,78.42,040624,,,A*6B

[2024-06-04 17:04:53.28336] $GPRMC,142449.00,A,3826.44381,N,02709.14767,E,21.021,80.59,040624,,,A*6A

[2024-06-04 17:04:54.29260] $GPRMC,142450.00,A,3826.44432,N,02709.15496,E,20.545,84.14,040624,,,A*6A

[2024-06-04 17:04:55.39493] $GPRMC,142451.00,A,3826.44496,N,02709.16229,E,20.872,82.45,040624,,,A*6F

[2024-06-04 17:04:56.35023] $GPRMC,142452.00,A,3826.44576,N,02709.16950,E,21.182,81.37,040624,,,A*67

[2024-06-04 17:04:57.33060] $GPRMC,142453.00,A,3826.44637,N,02709.17678,E,20.546,83.56,040624,,,A*6C

[2024-06-04 17:04:58.34489] $GPRMC,142454.00,A,3826.44712,N,02709.18386,E,20.037,83.19,040624,,,A*6E

[2024-06-04 17:04:59.38346] $GPRMC,142455.00,A,3826.44768,N,02709.19064,E,19.189,83.81,040624,,,A*63

[2024-06-04 17:05:00.32087] $GPRMC,142456.00,A,3826.44775,N,02709.19739,E,18.606,85.97,040624,,,A*63

[2024-06-04 17:05:01.31558] $GPRMC,142457.00,A,3826.44795,N,02709.20389,E,18.275,90.40,040624,,,A*67

[2024-06-04 17:05:02.32337] $GPRMC,142458.00,A,3826.44818,N,02709.21048,E,18.299,89.88,040624,,,A*63

[2024-06-04 17:05:03.33421] $GPRMC,142459.00,A,3826.44851,N,02709.21731,E,18.824,84.70,040624,,,A*60

[2024-06-04 17:05:04.33602] $GPRMC,142500.00,A,3826.44866,N,02709.22425,E,19.442,89.51,040624,,,A*6F

[2024-06-04 17:05:05.32710] $GPRMC,142501.00,A,3826.44865,N,02709.23135,E,20.183,91.84,040624,,,A*6B

[2024-06-04 17:05:06.30622] $GPRMC,142502.00,A,3826.44858,N,02709.23864,E,20.492,91.98,040624,,,A*63

[2024-06-04 17:05:07.33146] $GPRMC,142503.00,A,3826.44839,N,02709.24595,E,20.657,92.47,040624,,,A*6B

[2024-06-04 17:05:08.30335] $GPRMC,142504.00,A,3826.44785,N,02709.25323,E,20.710,95.20,040624,,,A*6A

[2024-06-04 17:05:09.30220] $GPRMC,142505.00,A,3826.44714,N,02709.26086,E,21.774,96.88,040624,,,A*6E

[2024-06-04 17:05:10.30165] $GPRMC,142506.00,A,3826.44640,N,02709.26863,E,22.234,97.97,040624,,,A*63

[2024-06-04 17:05:11.26303] $GPRMC,142507.00,A,3826.44539,N,02709.27654,E,22.812,99.68,040624,,,A*64

[2024-06-04 17:05:12.30612] $GPRMC,142508.00,A,3826.44413,N,02709.28437,E,22.013,101.57,040624,,,A*5F

[2024-06-04 17:05:13.32341] $GPRMC,142509.00,A,3826.44277,N,02709.29209,E,22.130,103.45,040624,,,A*51

[2024-06-04 17:05:14.30439] $GPRMC,142510.00,A,3826.44128,N,02709.30023,E,23.884,104.10,040624,,,A*52

[2024-06-04 17:05:15.30805] $GPRMC,142511.00,A,3826.43973,N,02709.30829,E,24.067,103.89,040624,,,A*55

[2024-06-04 17:05:16.32619] $GPRMC,142512.00,A,3826.43807,N,02709.31638,E,23.923,104.60,040624,,,A*55

[2024-06-04 17:05:17.30601] $GPRMC,142513.00,A,3826.43634,N,02709.32442,E,23.347,106.24,040624,,,A*5C

[2024-06-04 17:05:18.30477] $GPRMC,142514.00,A,3826.43447,N,02709.33214,E,22.868,106.94,040624,,,A*55

[2024-06-04 17:05:19.29889] $GPRMC,142515.00,A,3826.43233,N,02709.33900,E,22.540,107.36,040624,,,A*51

[2024-06-04 17:05:20.33748] $GPRMC,142516.00,A,3826.43026,N,02709.34666,E,23.057,106.48,040624,,,A*56

[2024-06-04 17:05:21.32628] $GPRMC,142517.00,A,3826.42964,N,02709.35425,E,21.452,103.04,040624,,,A*53

[2024-06-04 17:05:22.28338] $GPRMC,142518.00,A,3826.42781,N,02709.36270,E,21.900,106.96,040624,,,A*58

[2024-06-04 17:05:23.28478] $GPRMC,142519.00,A,3826.42506,N,02709.37008,E,23.304,107.07,040624,,,A*5D

[2024-06-04 17:05:24.31006] $GPRMC,142520.00,A,3826.42171,N,02709.37806,E,24.233,109.32,040624,,,A*5F

[2024-06-04 17:05:25.33865] $GPRMC,142521.00,A,3826.41996,N,02709.38651,E,22.671,109.90,040624,,,A*53

[2024-06-04 17:05:26.35933] $GPRMC,142522.00,A,3826.41786,N,02709.39443,E,22.086,112.62,040624,,,A*56

[2024-06-04 17:05:27.32059] $GPRMC,142523.00,A,3826.41470,N,02709.40057,E,21.899,113.66,040624,,,A*52

[2024-06-04 17:05:28.31846] $GPRMC,142524.00,A,3826.41143,N,02709.40575,E,21.530,115.48,040624,,,A*51

[2024-06-04 17:05:29.33786] $GPRMC,142525.00,A,3826.40983,N,02709.41285,E,21.598,102.41,040624,,,A*51

[2024-06-04 17:05:30.37107] $GPRMC,142526.00,A,3826.40533,N,02709.41806,E,21.831,128.91,040624,,,A*5F

[2024-06-04 17:05:31.34020] $GPRMC,142527.00,A,3826.40310,N,02709.42575,E,21.814,117.76,040624,,,A*51

[2024-06-04 17:05:32.38649] $GPRMC,142528.00,A,3826.40131,N,02709.43257,E,19.983,115.63,040624,,,A*5B

[2024-06-04 17:05:33.31954] $GPRMC,142529.00,A,3826.39923,N,02709.43925,E,19.773,114.98,040624,,,A*55

[2024-06-04 17:05:34.31218] $GPRMC,142530.00,A,3826.39713,N,02709.44628,E,20.378,113.70,040624,,,A*51

[2024-06-04 17:05:35.28989] $GPRMC,142531.00,A,3826.39550,N,02709.45363,E,20.233,110.12,040624,,,A*57

[2024-06-04 17:05:36.32799] $GPRMC,142532.00,A,3826.39401,N,02709.46117,E,20.459,104.94,040624,,,A*52

[2024-06-04 17:05:37.28636] $GPRMC,142533.00,A,3826.39233,N,02709.46847,E,20.580,105.69,040624,,,A*5E

[2024-06-04 17:05:38.32686] $GPRMC,142534.00,A,3826.39054,N,02709.47583,E,20.739,105.40,040624,,,A*55

[2024-06-04 17:05:39.34148] $GPRMC,142535.00,A,3826.38867,N,02709.48322,E,21.045,105.97,040624,,,A*58

[2024-06-04 17:05:40.29097] $GPRMC,142536.00,A,3826.38674,N,02709.49017,E,20.408,107.49,040624,,,A*5E

[2024-06-04 17:05:41.31792] $GPRMC,142537.00,A,3826.38513,N,02709.49658,E,19.251,107.53,040624,,,A*5B

[2024-06-04 17:05:42.33248] $GPRMC,142538.00,A,3826.38370,N,02709.50270,E,18.066,105.57,040624,,,A*50

[2024-06-04 17:05:43.33069] $GPRMC,142539.00,A,3826.38233,N,02709.50875,E,17.856,104.60,040624,,,A*59

[2024-06-04 17:05:44.36329] $GPRMC,142540.00,A,3826.38095,N,02709.51460,E,17.049,104.19,040624,,,A*58

[2024-06-04 17:05:45.33298] $GPRMC,142541.00,A,3826.38005,N,02709.51994,E,15.746,102.94,040624,,,A*5F

[2024-06-04 17:05:46.32832] $GPRMC,142542.00,A,3826.37944,N,02709.52524,E,15.307,100.44,040624,,,A*55

[2024-06-04 17:05:47.34200] $GPRMC,142543.00,A,3826.37860,N,02709.53032,E,14.583,100.22,040624,,,A*5B

[2024-06-04 17:05:48.34909] $GPRMC,142544.00,A,3826.37760,N,02709.53530,E,14.425,100.94,040624,,,A*54

[2024-06-04 17:05:49.33408] $GPRMC,142545.00,A,3826.37676,N,02709.54062,E,15.145,101.04,040624,,,A*5C

[2024-06-04 17:05:50.42546] $GPRMC,142546.00,A,3826.37559,N,02709.54634,E,16.084,101.75,040624,,,A*5D

[2024-06-04 17:05:51.38833] $GPRMC,142547.00,A,3826.37398,N,02709.55246,E,17.237,103.18,040624,,,A*55

[2024-06-04 17:05:52.33148] $GPRMC,142548.00,A,3826.37265,N,02709.55892,E,18.261,102.96,040624,,,A*51

[2024-06-04 17:05:53.33153] $GPRMC,142549.00,A,3826.37161,N,02709.56556,E,19.056,102.39,040624,,,A*53

[2024-06-04 17:05:54.32070] $GPRMC,142550.00,A,3826.37045,N,02709.57260,E,20.035,102.01,040624,,,A*5B

[2024-06-04 17:05:55.32749] $GPRMC,142551.00,A,3826.36915,N,02709.57988,E,21.016,101.11,040624,,,A*58

[2024-06-04 17:05:56.30752] $GPRMC,142552.00,A,3826.36742,N,02709.58741,E,22.134,103.30,040624,,,A*50

[2024-06-04 17:05:57.32108] $GPRMC,142553.00,A,3826.36380,N,02709.59499,E,23.419,108.96,040624,,,A*50

[2024-06-04 17:05:58.34369] $GPRMC,142554.00,A,3826.36132,N,02709.60355,E,24.988,108.83,040624,,,A*57

[2024-06-04 17:05:59.33469] $GPRMC,142555.00,A,3826.36021,N,02709.61251,E,25.698,105.18,040624,,,A*51

[2024-06-04 17:06:00.33098] $GPRMC,142556.00,A,3826.35842,N,02709.62165,E,26.240,104.08,040624,,,A*59

[2024-06-04 17:06:01.32526] $GPRMC,142557.00,A,3826.35681,N,02709.63084,E,26.319,103.07,040624,,,A*53

[2024-06-04 17:06:02.31564] $GPRMC,142558.00,A,3826.35530,N,02709.63983,E,26.131,103.30,040624,,,A*57

[2024-06-04 17:06:03.32368] $GPRMC,142559.00,A,3826.35358,N,02709.64889,E,26.348,103.85,040624,,,A*50

[2024-06-04 17:06:04.33414] $GPRMC,142600.00,A,3826.35170,N,02709.65815,E,26.795,104.33,040624,,,A*5D

[2024-06-04 17:06:05.32327] $GPRMC,142601.00,A,3826.35004,N,02709.66745,E,26.818,103.95,040624,,,A*56

[2024-06-04 17:06:06.31737] $GPRMC,142602.00,A,3826.34818,N,02709.67671,E,26.881,104.36,040624,,,A*58

[2024-06-04 17:06:07.33702] $GPRMC,142603.00,A,3826.34598,N,02709.68613,E,27.115,105.35,040624,,,A*50

[2024-06-04 17:06:08.38741] $GPRMC,142604.00,A,3826.34391,N,02709.69577,E,27.753,106.08,040624,,,A*51

[2024-06-04 17:06:09.35633] $GPRMC,142605.00,A,3826.34176,N,02709.70565,E,28.728,106.69,040624,,,A*54

[2024-06-04 17:06:10.33166] $GPRMC,142606.00,A,3826.33948,N,02709.71579,E,29.487,106.78,040624,,,A*5E

[2024-06-04 17:06:11.36466] $GPRMC,142607.00,A,3826.33724,N,02709.72616,E,30.141,106.45,040624,,,A*5B

[2024-06-04 17:06:12.32664] $GPRMC,142608.00,A,3826.33504,N,02709.73685,E,30.896,105.63,040624,,,A*5B

[2024-06-04 17:06:13.32015] $GPRMC,142609.00,A,3826.33302,N,02709.74791,E,31.802,104.35,040624,,,A*57

[2024-06-04 17:06:14.34355] $GPRMC,142607.00,A,3826.33121,N,02709.75934,E,32.673,102.25,040624,,,A*56

[2024-06-04 17:06:15.35181] $GPRMC,142608.00,A,3826.32973,N,02709.77082,E,32.785,100.12,040624,,,A*5F

[2024-06-04 17:06:16.35451] $GPRMC,142609.00,A,3826.32839,N,02709.78261,E,33.386,98.85,040624,,,A*69

[2024-06-04 17:06:17.32710] $GPRMC,142610.00,A,3826.32739,N,02709.79465,E,34.085,97.21,040624,,,A*6B

[2024-06-04 17:06:18.33220] $GPRMC,142611.00,A,3826.32691,N,02709.80705,E,34.930,94.74,040624,,,A*6E

[2024-06-04 17:06:19.33920] $GPRMC,142612.00,A,3826.32679,N,02709.81956,E,35.190,92.04,040624,,,A*60

[2024-06-04 17:06:20.43162] $GPRMC,142613.00,A,3826.32700,N,02709.83195,E,35.220,90.61,040624,,,A*62

[2024-06-04 17:06:21.33086] $GPRMC,142614.00,A,3826.32732,N,02709.84417,E,34.651,89.13,040624,,,A*62

[2024-06-04 17:06:22.32402] $GPRMC,142615.00,A,3826.32801,N,02709.85607,E,34.071,87.61,040624,,,A*61

[2024-06-04 17:06:23.30473] $GPRMC,142616.00,A,3826.32897,N,02709.86805,E,34.263,86.22,040624,,,A*65

[2024-06-04 17:06:24.33945] $GPRMC,142617.00,A,3826.32967,N,02709.88031,E,34.507,86.15,040624,,,A*6A

[2024-06-04 17:06:25.33406] $GPRMC,142618.00,A,3826.33101,N,02709.89247,E,34.516,84.25,040624,,,A*6F

[2024-06-04 17:06:26.32754] $GPRMC,142619.00,A,3826.33263,N,02709.90462,E,34.702,82.97,040624,,,A*68

[2024-06-04 17:06:27.33548] $GPRMC,142620.00,A,3826.33427,N,02709.91668,E,34.685,81.97,040624,,,A*60

[2024-06-04 17:06:28.33958] $GPRMC,142621.00,A,3826.33612,N,02709.92894,E,35.200,81.13,040624,,,A*6F

[2024-06-04 17:06:29.33286] $GPRMC,142622.00,A,3826.33771,N,02709.94124,E,35.204,81.36,040624,,,A*6F

[2024-06-04 17:06:30.32592] $GPRMC,142623.00,A,3826.33923,N,02709.95361,E,35.667,81.66,040624,,,A*61

[2024-06-04 17:06:31.36954] $GPRMC,142624.00,A,3826.34080,N,02709.96606,E,35.897,81.58,040624,,,A*6A

[2024-06-04 17:06:32.35874] $GPRMC,142625.00,A,3826.34249,N,02709.97853,E,35.551,80.77,040624,,,A*68

[2024-06-04 17:06:33.34772] $GPRMC,142626.00,A,3826.34407,N,02709.99088,E,35.656,81.12,040624,,,A*61

[2024-06-04 17:06:34.31079] $GPRMC,142627.00,A,3826.34557,N,02710.00329,E,35.745,81.47,040624,,,A*67

[2024-06-04 17:06:35.31004] $GPRMC,142628.00,A,3826.34702,N,02710.01586,E,35.923,81.61,040624,,,A*62

[2024-06-04 17:06:36.39799] $GPRMC,142629.00,A,3826.34844,N,02710.02842,E,35.982,81.48,040624,,,A*68

[2024-06-04 17:06:37.34648] $GPRMC,142630.00,A,3826.34999,N,02710.04107,E,36.060,81.25,040624,,,A*62

[2024-06-04 17:06:38.34754] $GPRMC,142631.00,A,3826.35154,N,02710.05370,E,36.127,81.13,040624,,,A*6F

[2024-06-04 17:06:39.33512] $GPRMC,142632.00,A,3826.35317,N,02710.06637,E,36.212,81.06,040624,,,A*6D

[2024-06-04 17:06:40.34841] $GPRMC,142633.00,A,3826.35507,N,02710.07898,E,36.268,80.04,040624,,,A*6F

[2024-06-04 17:06:41.34104] $GPRMC,142634.00,A,3826.35698,N,02710.09157,E,36.375,79.54,040624,,,A*67

[2024-06-04 17:06:42.35008] $GPRMC,142635.00,A,3826.35920,N,02710.10410,E,36.137,78.24,040624,,,A*66

[2024-06-04 17:06:43.33474] $GPRMC,142636.00,A,3826.36192,N,02710.11621,E,35.448,75.28,040624,,,A*69

[2024-06-04 17:06:44.35901] $GPRMC,142637.00,A,3826.36517,N,02710.12828,E,35.030,69.48,040624,,,A*65

[2024-06-04 17:06:45.33815] $GPRMC,142638.00,A,3826.36918,N,02710.13991,E,34.621,64.87,040624,,,A*62

[2024-06-04 17:06:46.32251] $GPRMC,142639.00,A,3826.37363,N,02710.15060,E,34.118,60.25,040624,,,A*64

[2024-06-04 17:06:47.31794] $GPRMC,142640.00,A,3826.37849,N,02710.16079,E,33.903,55.69,040624,,,A*69

[2024-06-04 17:06:48.33939] $GPRMC,142641.00,A,3826.38405,N,02710.17087,E,34.685,52.89,040624,,,A*6C

[2024-06-04 17:06:49.33253] $GPRMC,142642.00,A,3826.39076,N,02710.18030,E,35.030,46.26,040624,,,A*64

[2024-06-04 17:06:50.39881] $GPRMC,142643.00,A,3826.39805,N,02710.18901,E,35.462,42.21,040624,,,A*62

[2024-06-04 17:06:51.33136] $GPRMC,142644.00,A,3826.40588,N,02710.19648,E,34.837,36.36,040624,,,A*68

[2024-06-04 17:06:52.33632] $GPRMC,142645.00,A,3826.41461,N,02710.20317,E,36.166,30.78,040624,,,A*68

[2024-06-04 17:06:53.33220] $GPRMC,142646.00,A,3826.42307,N,02710.20929,E,35.895,28.62,040624,,,A*6C

[2024-06-04 17:06:54.34281] $GPRMC,142647.00,A,3826.43197,N,02710.21454,E,35.544,24.24,040624,,,A*6E

[2024-06-04 17:06:55.32058] $GPRMC,142648.00,A,3826.44110,N,02710.21940,E,35.617,23.63,040624,,,A*60

[2024-06-04 17:06:56.29591] $GPRMC,142649.00,A,3826.45035,N,02710.22402,E,35.330,21.80,040624,,,A*61

[2024-06-04 17:06:57.30979] $GPRMC,142650.00,A,3826.45944,N,02710.22865,E,34.903,20.87,040624,,,A*66

[2024-06-04 17:06:58.32125] $GPRMC,142651.00,A,3826.46838,N,02710.23332,E,34.618,21.87,040624,,,A*62

[2024-06-04 17:06:59.33049] $GPRMC,142652.00,A,3826.47736,N,02710.23818,E,35.157,22.70,040624,,,A*64

[2024-06-04 17:07:00.33621] $GPRMC,142653.00,A,3826.48655,N,02710.24315,E,36.060,23.50,040624,,,A*6A

[2024-06-04 17:07:01.33188] $GPRMC,142654.00,A,3826.49590,N,02710.24850,E,37.060,23.26,040624,,,A*6C

[2024-06-04 17:07:02.33130] $GPRMC,142655.00,A,3826.50541,N,02710.25412,E,37.966,24.77,040624,,,A*6E

[2024-06-04 17:07:03.32490] $GPRMC,142656.00,A,3826.51531,N,02710.26002,E,39.719,25.54,040624,,,A*65

[2024-06-04 17:07:04.32890] $GPRMC,142657.00,A,3826.52550,N,02710.26623,E,40.858,25.67,040624,,,A*61

[2024-06-04 17:07:05.32134] $GPRMC,142658.00,A,3826.53597,N,02710.27268,E,41.815,25.91,040624,,,A*6F

[2024-06-04 17:07:06.34020] $GPRMC,142659.00,A,3826.54657,N,02710.27926,E,42.431,26.04,040624,,,A*61

[2024-06-04 17:07:07.32336] $GPRMC,142700.00,A,3826.55724,N,02710.28578,E,42.631,25.53,040624,,,A*63

[2024-06-04 17:07:08.30546] $GPRMC,142701.00,A,3826.56787,N,02710.29289,E,43.112,28.01,040624,,,A*6D

