[2024-05-26 11:55:05.495877] $GPRMC,100156.00,A,3820.00578,N,02638.69055,E,15.616,218.35,260524,,,A*51

[2024-05-26 11:55:06.494008] $GPRMC,100157.00,A,3820.00227,N,02638.68717,E,16.352,218.62,260524,,,A*59

[2024-05-26 11:55:07.495367] $GPRMC,100158.00,A,3819.99878,N,02638.68345,E,16.511,219.64,260524,,,A*59

[2024-05-26 11:55:08.494053] $GPRMC,100159.00,A,3819.99508,N,02638.67943,E,17.637,221.48,260524,,,A*52

[2024-05-26 11:55:09.495822] $GPRMC,100200.00,A,3819.99131,N,02638.67521,E,18.463,222.89,260524,,,A*59

[2024-05-26 11:55:10.496884] $GPRMC,100201.00,A,3819.98765,N,02638.67066,E,18.884,224.80,260524,,,A*52

[2024-05-26 11:55:11.498319] $GPRMC,100202.00,A,3819.98395,N,02638.66624,E,18.756,223.77,260524,,,A*54

[2024-05-26 11:55:12.496203] $GPRMC,100203.00,A,3819.98038,N,02638.66184,E,18.237,224.45,260524,,,A*58

[2024-05-26 11:55:13.495636] $GPRMC,100204.00,A,3819.97675,N,02638.65758,E,18.147,222.85,260524,,,A*55

[2024-05-26 11:55:14.496347] $GPRMC,100205.00,A,3819.97303,N,02638.65324,E,18.564,221.68,260524,,,A*5A

[2024-05-26 11:55:15.497213] $GPRMC,100206.00,A,3819.96955,N,02638.64900,E,17.752,222.98,260524,,,A*58

[2024-05-26 11:55:16.494182] $GPRMC,100207.00,A,3819.96615,N,02638.64511,E,16.794,222.51,260524,,,A*50

[2024-05-26 11:55:17.495390] $GPRMC,100208.00,A,3819.96297,N,02638.64163,E,15.354,221.48,260524,,,A*50

[2024-05-26 11:55:18.496064] $GPRMC,100209.00,A,3819.96012,N,02638.63840,E,13.568,220.98,260524,,,A*52

[2024-05-26 11:55:19.503334] $GPRMC,100210.00,A,3819.95773,N,02638.63551,E,12.079,222.03,260524,,,A*50

[2024-05-26 11:55:20.495556] $GPRMC,100211.00,A,3819.95541,N,02638.63292,E,11.199,221.74,260524,,,A*55

[2024-05-26 11:55:21.497144] $GPRMC,100212.00,A,3819.95335,N,02638.63064,E,9.683,222.36,260524,,,A*68

[2024-05-26 11:55:22.498131] $GPRMC,100213.00,A,3819.95154,N,02638.62858,E,8.587,222.35,260524,,,A*6F

[2024-05-26 11:55:23.496200] $GPRMC,100214.00,A,3819.95010,N,02638.62677,E,7.319,224.76,260524,,,A*65

[2024-05-26 11:55:24.497194] $GPRMC,100215.00,A,3819.94853,N,02638.62526,E,7.308,224.00,260524,,,A*6C

[2024-05-26 11:55:25.505219] $GPRMC,100216.00,A,3819.94714,N,02638.62385,E,6.257,223.62,260524,,,A*65

[2024-05-26 11:55:26.495522] $GPRMC,100217.00,A,3819.94556,N,02638.62224,E,7.132,222.03,260524,,,A*6D

[2024-05-26 11:55:27.496017] $GPRMC,100218.00,A,3819.94428,N,02638.62086,E,6.302,222.59,260524,,,A*6F

[2024-05-26 11:55:28.495508] $GPRMC,100219.00,A,3819.94309,N,02638.61974,E,5.038,222.95,260524,,,A*64

[2024-05-26 11:55:29.496261] $GPRMC,100220.00,A,3819.94195,N,02638.61893,E,4.432,219.49,260524,,,A*67

[2024-05-26 11:55:30.495355] $GPRMC,100221.00,A,3819.94108,N,02638.61803,E,3.832,220.70,260524,,,A*60

[2024-05-26 11:55:31.507080] $GPRMC,100222.00,A,3819.94029,N,02638.61703,E,4.080,222.78,260524,,,A*62

[2024-05-26 11:55:32.495319] $GPRMC,100223.00,A,3819.93962,N,02638.61546,E,4.217,224.68,260524,,,A*6A

[2024-05-26 11:55:33.495742] $GPRMC,100224.00,A,3819.93847,N,02638.61412,E,5.514,224.70,260524,,,A*67

[2024-05-26 11:55:34.494540] $GPRMC,100225.00,A,3819.93757,N,02638.61263,E,5.349,224.22,260524,,,A*61

[2024-05-26 11:55:35.496576] $GPRMC,100226.00,A,3819.93660,N,02638.61096,E,6.037,223.58,260524,,,A*6C

[2024-05-26 11:55:36.496086] $GPRMC,100227.00,A,3819.93539,N,02638.60916,E,6.570,223.35,260524,,,A*6F

[2024-05-26 11:55:37.495947] $GPRMC,100228.00,A,3819.93460,N,02638.60736,E,5.186,226.41,260524,,,A*69

[2024-05-26 11:55:38.494635] $GPRMC,100229.00,A,3819.93331,N,02638.60577,E,6.470,224.82,260524,,,A*6E

[2024-05-26 11:55:39.494154] $GPRMC,100230.00,A,3819.93213,N,02638.60428,E,6.076,224.20,260524,,,A*66

[2024-05-26 11:55:40.498195] $GPRMC,100231.00,A,3819.93099,N,02638.60295,E,5.324,225.46,260524,,,A*61

[2024-05-26 11:55:41.498582] $GPRMC,100232.00,A,3819.92987,N,02638.60162,E,5.838,225.47,260524,,,A*69

[2024-05-26 11:55:42.498350] $GPRMC,100233.00,A,3819.92830,N,02638.59980,E,7.519,225.61,260524,,,A*63

[2024-05-26 11:55:43.510898] $GPRMC,100234.00,A,3819.92643,N,02638.59821,E,8.350,223.83,260524,,,A*6A

[2024-05-26 11:55:44.496637] $GPRMC,100235.00,A,3819.92511,N,02638.59650,E,6.110,224.24,260524,,,A*65

[2024-05-26 11:55:45.499262] $GPRMC,100236.00,A,3819.92442,N,02638.59560,E,2.886,224.05,260524,,,A*60

[2024-05-26 11:55:46.499722] $GPRMC,100237.00,A,3819.92426,N,02638.59539,E,0.106,,260524,,,A*73

[2024-05-26 11:55:47.500358] $GPRMC,100238.00,A,3819.92425,N,02638.59533,E,0.105,,260524,,,A*76

[2024-05-26 11:55:48.499922] $GPRMC,100239.00,A,3819.92437,N,02638.59548,E,0.247,,260524,,,A*7D

[2024-05-26 11:55:49.501360] $GPRMC,100240.00,A,3819.92441,N,02638.59553,E,0.170,,260524,,,A*7F

[2024-05-26 11:55:50.500142] $GPRMC,100241.00,A,3819.92406,N,02638.59514,E,2.438,223.09,260524,,,A*61

[2024-05-26 11:55:51.499988] $GPRMC,100242.00,A,3819.92309,N,02638.59418,E,4.462,221.35,260524,,,A*63

[2024-05-26 11:55:52.493599] $GPRMC,100243.00,A,3819.92224,N,02638.59245,E,6.497,230.95,260524,,,A*60

[2024-05-26 11:55:53.506751] $GPRMC,100244.00,A,3819.92074,N,02638.59056,E,7.089,227.21,260524,,,A*63

[2024-05-26 11:55:54.501249] $GPRMC,100245.00,A,3819.91935,N,02638.58884,E,6.521,226.26,260524,,,A*6B

[2024-05-26 11:55:55.507984] $GPRMC,100246.00,A,3819.91767,N,02638.58708,E,6.965,223.94,260524,,,A*6A

[2024-05-26 11:55:56.507523] $GPRMC,100247.00,A,3819.91602,N,02638.58497,E,8.729,224.71,260524,,,A*68

[2024-05-26 11:55:57.507836] $GPRMC,100248.00,A,3819.91401,N,02638.58240,E,10.185,225.43,260524,,,A*53

[2024-05-26 11:55:58.499793] $GPRMC,100249.00,A,3819.91228,N,02638.58004,E,8.938,226.63,260524,,,A*6B

[2024-05-26 11:55:59.500227] $GPRMC,100250.00,A,3819.91063,N,02638.57794,E,7.788,224.97,260524,,,A*6C

[2024-05-26 11:56:00.500886] $GPRMC,100251.00,A,3819.90873,N,02638.57584,E,9.236,222.67,260524,,,A*61

[2024-05-26 11:56:01.501548] $GPRMC,100252.00,A,3819.90697,N,02638.57355,E,9.212,224.84,260524,,,A*61

[2024-05-26 11:56:02.499408] $GPRMC,100253.00,A,3819.90423,N,02638.57130,E,10.924,216.02,260524,,,A*55

[2024-05-26 11:56:03.500383] $GPRMC,100254.00,A,3819.90129,N,02638.56931,E,11.380,209.71,260524,,,A*5A

[2024-05-26 11:56:04.500716] $GPRMC,100255.00,A,3819.89785,N,02638.56733,E,12.348,204.94,260524,,,A*5E

[2024-05-26 11:56:05.500753] $GPRMC,100256.00,A,3819.89293,N,02638.56505,E,13.556,203.36,260524,,,A*5F

[2024-05-26 11:56:06.500276] $GPRMC,100257.00,A,3819.88904,N,02638.56353,E,13.885,196.00,260524,,,A*56

[2024-05-26 11:56:07.501741] $GPRMC,100258.00,A,3819.88501,N,02638.56227,E,14.695,191.46,260524,,,A*5F

[2024-05-26 11:56:08.500523] $GPRMC,100259.00,A,3819.88070,N,02638.56146,E,15.343,185.79,260524,,,A*5F

[2024-05-26 11:56:09.499976] $GPRMC,100300.00,A,3819.87622,N,02638.56112,E,15.906,179.86,260524,,,A*55

[2024-05-26 11:56:10.499018] $GPRMC,100301.00,A,3819.87150,N,02638.56128,E,16.544,176.80,260524,,,A*5F

[2024-05-26 11:56:11.501362] $GPRMC,100302.00,A,3819.86655,N,02638.56180,E,16.739,173.24,260524,,,A*5E

[2024-05-26 11:56:12.501850] $GPRMC,100303.00,A,3819.86167,N,02638.56228,E,16.922,174.62,260524,,,A*59

[2024-05-26 11:56:13.500944] $GPRMC,100304.00,A,3819.85716,N,02638.56268,E,15.784,176.42,260524,,,A*58

[2024-05-26 11:56:14.500640] $GPRMC,100305.00,A,3819.85287,N,02638.56351,E,14.891,172.36,260524,,,A*52

[2024-05-26 11:56:15.500896] $GPRMC,100306.00,A,3819.84870,N,02638.56447,E,15.407,169.01,260524,,,A*5E

[2024-05-26 11:56:16.499934] $GPRMC,100307.00,A,3819.84437,N,02638.56555,E,16.129,169.19,260524,,,A*51

[2024-05-26 11:56:17.500280] $GPRMC,100308.00,A,3819.83960,N,02638.56633,E,16.865,172.86,260524,,,A*58

[2024-05-26 11:56:18.499667] $GPRMC,100309.00,A,3819.83497,N,02638.56688,E,16.421,175.64,260524,,,A*5B

[2024-05-26 11:56:19.506845] $GPRMC,100310.00,A,3819.83045,N,02638.56728,E,16.198,176.34,260524,,,A*52

[2024-05-26 11:56:20.501292] $GPRMC,100311.00,A,3819.82600,N,02638.56759,E,15.919,176.60,260524,,,A*50

[2024-05-26 11:56:21.505764] $GPRMC,100312.00,A,3819.82150,N,02638.56823,E,15.399,175.77,260524,,,A*54

[2024-05-26 11:56:22.502330] $GPRMC,100313.00,A,3819.81741,N,02638.56880,E,14.763,172.72,260524,,,A*5B

[2024-05-26 11:56:23.502029] $GPRMC,100314.00,A,3819.81354,N,02638.56977,E,14.030,167.53,260524,,,A*53

[2024-05-26 11:56:24.501195] $GPRMC,100315.00,A,3819.80967,N,02638.57133,E,14.639,162.48,260524,,,A*50

[2024-05-26 11:56:25.510718] $GPRMC,100316.00,A,3819.80582,N,02638.57329,E,15.233,160.08,260524,,,A*54

[2024-05-26 11:56:26.501836] $GPRMC,100317.00,A,3819.80175,N,02638.57551,E,15.894,158.15,260524,,,A*50

[2024-05-26 11:56:27.501656] $GPRMC,100318.00,A,3819.79753,N,02638.57801,E,16.497,154.89,260524,,,A*56

[2024-05-26 11:56:28.501767] $GPRMC,100319.00,A,3819.79344,N,02638.58098,E,16.726,151.05,260524,,,A*5A

[2024-05-26 11:56:29.506291] $GPRMC,100320.00,A,3819.78937,N,02638.58431,E,17.418,147.61,260524,,,A*52

[2024-05-26 11:56:30.500218] $GPRMC,100321.00,A,3819.78513,N,02638.58795,E,18.229,144.24,260524,,,A*5D

[2024-05-26 11:56:31.514364] $GPRMC,100322.00,A,3819.78095,N,02638.59211,E,18.894,140.58,260524,,,A*5E

[2024-05-26 11:56:32.502654] $GPRMC,100323.00,A,3819.77683,N,02638.59654,E,19.304,138.58,260524,,,A*58

[2024-05-26 11:56:33.506058] $GPRMC,100324.00,A,3819.77278,N,02638.60120,E,19.745,136.81,260524,,,A*5A

[2024-05-26 11:56:34.504433] $GPRMC,100325.00,A,3819.76868,N,02638.60610,E,19.984,136.90,260524,,,A*56

[2024-05-26 11:56:35.510146] $GPRMC,100326.00,A,3819.76454,N,02638.61091,E,20.200,137.05,260524,,,A*58

[2024-05-26 11:56:36.502720] $GPRMC,100327.00,A,3819.76021,N,02638.61563,E,20.335,138.78,260524,,,A*55

[2024-05-26 11:56:37.503246] $GPRMC,100328.00,A,3819.75561,N,02638.62031,E,21.101,140.98,260524,,,A*5C

[2024-05-26 11:56:38.502950] $GPRMC,100329.00,A,3819.75082,N,02638.62483,E,21.063,143.88,260524,,,A*5F

[2024-05-26 11:56:39.505176] $GPRMC,100330.00,A,3819.74587,N,02638.62915,E,21.006,145.13,260524,,,A*53

[2024-05-26 11:56:40.501249] $GPRMC,100331.00,A,3819.74088,N,02638.63328,E,20.794,146.08,260524,,,A*59

[2024-05-26 11:56:41.501594] $GPRMC,100332.00,A,3819.73580,N,02638.63706,E,20.104,149.94,260524,,,A*5D

[2024-05-26 11:56:42.502135] $GPRMC,100333.00,A,3819.73088,N,02638.64027,E,19.598,154.37,260524,,,A*5C

[2024-05-26 11:56:43.508069] $GPRMC,100334.00,A,3819.72594,N,02638.64281,E,18.336,156.27,260524,,,A*5C

[2024-05-26 11:56:44.500169] $GPRMC,100335.00,A,3819.72136,N,02638.64520,E,17.399,157.88,260524,,,A*53

[2024-05-26 11:56:45.502280] $GPRMC,100336.00,A,3819.71686,N,02638.64737,E,16.879,160.69,260524,,,A*54

[2024-05-26 11:56:46.502890] $GPRMC,100337.00,A,3819.71237,N,02638.64921,E,16.666,161.16,260524,,,A*5B

[2024-05-26 11:56:47.505336] $GPRMC,100338.00,A,3819.70801,N,02638.65121,E,16.710,160.47,260524,,,A*56

[2024-05-26 11:56:48.502557] $GPRMC,100339.00,A,3819.70349,N,02638.65345,E,17.628,160.08,260524,,,A*50

[2024-05-26 11:56:49.510216] $GPRMC,100340.00,A,3819.69877,N,02638.65572,E,18.435,160.20,260524,,,A*59

[2024-05-26 11:56:50.503164] $GPRMC,100341.00,A,3819.69381,N,02638.65805,E,19.418,160.35,260524,,,A*5D

[2024-05-26 11:56:51.506297] $GPRMC,100342.00,A,3819.68860,N,02638.66042,E,20.306,161.07,260524,,,A*51

[2024-05-26 11:56:52.502952] $GPRMC,100343.00,A,3819.68315,N,02638.66286,E,20.990,161.04,260524,,,A*55

[2024-05-26 11:56:53.502969] $GPRMC,100344.00,A,3819.67762,N,02638.66533,E,21.371,160.66,260524,,,A*51

[2024-05-26 11:56:54.502044] $GPRMC,100345.00,A,3819.67204,N,02638.66787,E,21.596,159.85,260524,,,A*50

[2024-05-26 11:56:55.511251] $GPRMC,100346.00,A,3819.66647,N,02638.67058,E,21.766,159.19,260524,,,A*5D

[2024-05-26 11:56:56.506444] $GPRMC,100347.00,A,3819.66074,N,02638.67343,E,22.299,158.84,260524,,,A*50

[2024-05-26 11:56:57.506534] $GPRMC,100348.00,A,3819.65486,N,02638.67639,E,22.914,158.40,260524,,,A*5B

[2024-05-26 11:56:58.505153] $GPRMC,100349.00,A,3819.64882,N,02638.67942,E,23.380,158.91,260524,,,A*5A

[2024-05-26 11:56:59.510019] $GPRMC,100350.00,A,3819.64262,N,02638.68237,E,23.867,159.69,260524,,,A*54

[2024-05-26 11:57:00.511344] $GPRMC,100351.00,A,3819.63632,N,02638.68536,E,24.277,159.57,260524,,,A*54

[2024-05-26 11:57:01.506683] $GPRMC,100352.00,A,3819.62996,N,02638.68838,E,24.333,159.59,260524,,,A*5B

[2024-05-26 11:57:02.511580] $GPRMC,100353.00,A,3819.62357,N,02638.69143,E,24.756,159.55,260524,,,A*52

[2024-05-26 11:57:03.507573] $GPRMC,100354.00,A,3819.61712,N,02638.69454,E,24.990,159.38,260524,,,A*5F

[2024-05-26 11:57:04.506478] $GPRMC,100355.00,A,3819.61059,N,02638.69773,E,25.134,158.81,260524,,,A*54

[2024-05-26 11:57:05.507221] $GPRMC,100356.00,A,3819.60406,N,02638.70100,E,25.276,158.59,260524,,,A*52

[2024-05-26 11:57:06.506763] $GPRMC,100357.00,A,3819.59750,N,02638.70431,E,25.426,158.41,260524,,,A*54

[2024-05-26 11:57:07.507284] $GPRMC,100358.00,A,3819.59091,N,02638.70756,E,25.464,158.77,260524,,,A*50

[2024-05-26 11:57:08.510745] $GPRMC,100359.00,A,3819.58426,N,02638.71069,E,25.552,159.70,260524,,,A*50

[2024-05-26 11:57:09.511640] $GPRMC,100400.00,A,3819.57755,N,02638.71388,E,25.921,159.25,260524,,,A*57

[2024-05-26 11:57:10.506965] $GPRMC,100401.00,A,3819.57080,N,02638.71698,E,26.078,160.32,260524,,,A*57

[2024-05-26 11:57:11.506981] $GPRMC,100402.00,A,3819.56394,N,02638.71995,E,26.134,161.62,260524,,,A*5C

[2024-05-26 11:57:12.509705] $GPRMC,100403.00,A,3819.55703,N,02638.72279,E,26.211,162.69,260524,,,A*52

[2024-05-26 11:57:13.508840] $GPRMC,100404.00,A,3819.55003,N,02638.72545,E,26.504,163.30,260524,,,A*54

[2024-05-26 11:57:14.508715] $GPRMC,100405.00,A,3819.54304,N,02638.72800,E,26.736,163.65,260524,,,A*5F

[2024-05-26 11:57:15.507216] $GPRMC,100406.00,A,3819.53600,N,02638.73051,E,26.636,164.38,260524,,,A*59

[2024-05-26 11:57:16.505621] $GPRMC,100407.00,A,3819.52890,N,02638.73287,E,26.640,166.03,260524,,,A*5C

[2024-05-26 11:57:17.509770] $GPRMC,100408.00,A,3819.52178,N,02638.73485,E,26.596,167.30,260524,,,A*51

[2024-05-26 11:57:18.509905] $GPRMC,100409.00,A,3819.51463,N,02638.73680,E,26.569,167.16,260524,,,A*5F

[2024-05-26 11:57:19.513232] $GPRMC,100410.00,A,3819.50742,N,02638.73859,E,26.778,168.87,260524,,,A*59

[2024-05-26 11:57:20.507466] $GPRMC,100411.00,A,3819.50010,N,02638.74018,E,26.950,170.13,260524,,,A*52

[2024-05-26 11:57:21.510884] $GPRMC,100412.00,A,3819.49271,N,02638.74159,E,27.123,171.04,260524,,,A*52

[2024-05-26 11:57:22.511738] $GPRMC,100413.00,A,3819.48524,N,02638.74289,E,27.444,172.08,260524,,,A*50

[2024-05-26 11:57:23.510676] $GPRMC,100414.00,A,3819.47764,N,02638.74402,E,27.829,173.22,260524,,,A*55

[2024-05-26 11:57:24.503831] $GPRMC,100415.00,A,3819.46995,N,02638.74506,E,27.999,173.58,260524,,,A*57

[2024-05-26 11:57:25.513388] $GPRMC,100416.00,A,3819.46238,N,02638.74608,E,27.317,173.47,260524,,,A*57

[2024-05-26 11:57:26.503627] $GPRMC,100417.00,A,3819.45503,N,02638.74711,E,26.419,173.27,260524,,,A*5D

[2024-05-26 11:57:27.507344] $GPRMC,100418.00,A,3819.44787,N,02638.74825,E,25.789,172.43,260524,,,A*5F

[2024-05-26 11:57:28.506743] $GPRMC,100419.00,A,3819.44087,N,02638.74939,E,25.248,172.47,260524,,,A*59

[2024-05-26 11:57:29.508747] $GPRMC,100420.00,A,3819.43405,N,02638.75049,E,24.576,172.68,260524,,,A*53

[2024-05-26 11:57:30.510332] $GPRMC,100421.00,A,3819.42734,N,02638.75153,E,24.221,173.04,260524,,,A*56

[2024-05-26 11:57:31.528034] $GPRMC,100422.00,A,3819.42079,N,02638.75257,E,23.779,172.47,260524,,,A*55

[2024-05-26 11:57:32.507537] $GPRMC,100423.00,A,3819.41439,N,02638.75358,E,23.103,172.47,260524,,,A*52

[2024-05-26 11:57:33.510580] $GPRMC,100424.00,A,3819.40835,N,02638.75448,E,21.302,172.83,260524,,,A*5B

[2024-05-26 11:57:34.507312] $GPRMC,100425.00,A,3819.40292,N,02638.75518,E,18.924,174.57,260524,,,A*52

[2024-05-26 11:57:35.507521] $GPRMC,100426.00,A,3819.39833,N,02638.75502,E,16.005,184.25,260524,,,A*5B

[2024-05-26 11:57:36.506163] $GPRMC,100427.00,A,3819.39430,N,02638.75385,E,14.512,194.39,260524,,,A*51

[2024-05-26 11:57:37.505620] $GPRMC,100428.00,A,3819.39082,N,02638.75164,E,14.057,207.66,260524,,,A*59

[2024-05-26 11:57:38.503683] $GPRMC,100429.00,A,3819.38791,N,02638.74894,E,13.010,217.49,260524,,,A*53

[2024-05-26 11:57:39.509108] $GPRMC,100430.00,A,3819.38549,N,02638.74587,E,12.527,224.59,260524,,,A*52

[2024-05-26 11:57:40.507912] $GPRMC,100431.00,A,3819.38275,N,02638.74335,E,12.299,214.24,260524,,,A*5F

[2024-05-26 11:57:41.503835] $GPRMC,100432.00,A,3819.37933,N,02638.74192,E,12.866,194.47,260524,,,A*51

[2024-05-26 11:57:42.503141] $GPRMC,100433.00,A,3819.37576,N,02638.74201,E,12.838,176.48,260524,,,A*5C

[2024-05-26 11:57:43.513676] $GPRMC,100434.00,A,3819.37223,N,02638.74375,E,13.477,154.72,260524,,,A*51

[2024-05-26 11:57:44.507637] $GPRMC,100435.00,A,3819.36888,N,02638.74671,E,14.678,140.60,260524,,,A*57

[2024-05-26 11:57:45.507536] $GPRMC,100436.00,A,3819.36570,N,02638.75050,E,15.855,136.77,260524,,,A*5D

[2024-05-26 11:57:46.508892] $GPRMC,100437.00,A,3819.36195,N,02638.75435,E,16.960,140.22,260524,,,A*51

[2024-05-26 11:57:47.509257] $GPRMC,100438.00,A,3819.35759,N,02638.75816,E,18.978,146.84,260524,,,A*5B

[2024-05-26 11:57:48.511073] $GPRMC,100439.00,A,3819.35275,N,02638.76176,E,20.672,152.62,260524,,,A*5E

[2024-05-26 11:57:49.517194] $GPRMC,100440.00,A,3819.34726,N,02638.76516,E,22.396,157.50,260524,,,A*59

[2024-05-26 11:57:50.507924] $GPRMC,100441.00,A,3819.34119,N,02638.76801,E,23.583,162.68,260524,,,A*57

[2024-05-26 11:57:51.507377] $GPRMC,100442.00,A,3819.33468,N,02638.77039,E,24.919,165.21,260524,,,A*50

[2024-05-26 11:57:52.511865] $GPRMC,100443.00,A,3819.32778,N,02638.77252,E,25.744,166.99,260524,,,A*5A

[2024-05-26 11:57:53.508365] $GPRMC,100444.00,A,3819.32068,N,02638.77446,E,26.447,168.31,260524,,,A*57

[2024-05-26 11:57:54.510932] $GPRMC,100445.00,A,3819.31349,N,02638.77612,E,26.572,170.14,260524,,,A*5F

[2024-05-26 11:57:55.511282] $GPRMC,100446.00,A,3819.30632,N,02638.77757,E,26.210,171.23,260524,,,A*52

[2024-05-26 11:57:56.507646] $GPRMC,100447.00,A,3819.29925,N,02638.77881,E,25.767,172.39,260524,,,A*58

[2024-05-26 11:57:57.509873] $GPRMC,100448.00,A,3819.29221,N,02638.77983,E,25.482,173.44,260524,,,A*58

[2024-05-26 11:57:58.507801] $GPRMC,100449.00,A,3819.28535,N,02638.78065,E,24.861,174.30,260524,,,A*50

[2024-05-26 11:57:59.509055] $GPRMC,100450.00,A,3819.27888,N,02638.78125,E,23.039,175.70,260524,,,A*5E

[2024-05-26 11:58:00.507403] $GPRMC,100451.00,A,3819.27304,N,02638.78155,E,20.578,178.13,260524,,,A*5C

[2024-05-26 11:58:01.507376] $GPRMC,100452.00,A,3819.26779,N,02638.78148,E,18.629,181.50,260524,,,A*51

[2024-05-26 11:58:02.505877] $GPRMC,100453.00,A,3819.26281,N,02638.78102,E,17.843,185.05,260524,,,A*55

[2024-05-26 11:58:03.507514] $GPRMC,100454.00,A,3819.25823,N,02638.78014,E,16.140,189.76,260524,,,A*56

[2024-05-26 11:58:04.511213] $GPRMC,100455.00,A,3819.25411,N,02638.77879,E,14.943,195.54,260524,,,A*52

[2024-05-26 11:58:05.508328] $GPRMC,100456.00,A,3819.25024,N,02638.77705,E,14.369,200.82,260524,,,A*51

[2024-05-26 11:58:06.508296] $GPRMC,100457.00,A,3819.24655,N,02638.77486,E,14.806,206.19,260524,,,A*5F

[2024-05-26 11:58:07.507420] $GPRMC,100458.00,A,3819.24301,N,02638.77235,E,14.428,209.83,260524,,,A*56

[2024-05-26 11:58:08.506269] $GPRMC,100459.00,A,3819.23982,N,02638.76987,E,13.076,211.68,260524,,,A*56

[2024-05-26 11:58:09.504266] $GPRMC,100500.00,A,3819.23709,N,02638.76763,E,11.195,212.94,260524,,,A*5C

[2024-05-26 11:58:10.511016] $GPRMC,100501.00,A,3819.23487,N,02638.76576,E,9.095,215.93,260524,,,A*66

[2024-05-26 11:58:11.514351] $GPRMC,100502.00,A,3819.23304,N,02638.76409,E,7.482,216.55,260524,,,A*65

[2024-05-26 11:58:12.511104] $GPRMC,100503.00,A,3819.23150,N,02638.76265,E,6.583,217.30,260524,,,A*68

[2024-05-26 11:58:13.513583] $GPRMC,100504.00,A,3819.23012,N,02638.76133,E,6.261,218.22,260524,,,A*6F

[2024-05-26 11:58:14.509400] $GPRMC,100505.00,A,3819.22886,N,02638.76002,E,5.892,219.66,260524,,,A*6D

[2024-05-26 11:58:15.511030] $GPRMC,100506.00,A,3819.22783,N,02638.75902,E,4.140,219.85,260524,,,A*64

[2024-05-26 11:58:16.508615] $GPRMC,100507.00,A,3819.22720,N,02638.75834,E,2.462,220.21,260524,,,A*6F

[2024-05-26 11:58:17.505340] $GPRMC,100508.00,A,3819.22669,N,02638.75788,E,2.226,218.85,260524,,,A*67

[2024-05-26 11:58:18.507962] $GPRMC,100509.00,A,3819.22605,N,02638.75721,E,3.351,220.03,260524,,,A*6A

[2024-05-26 11:58:19.510773] $GPRMC,100510.00,A,3819.22505,N,02638.75624,E,4.958,218.91,260524,,,A*61

[2024-05-26 11:58:20.511725] $GPRMC,100511.00,A,3819.22364,N,02638.75498,E,6.377,216.16,260524,,,A*60

[2024-05-26 11:58:21.507803] $GPRMC,100512.00,A,3819.22210,N,02638.75366,E,6.786,215.64,260524,,,A*6B

[2024-05-26 11:58:22.504558] $GPRMC,100513.00,A,3819.22108,N,02638.75289,E,3.948,210.91,260524,,,A*66

[2024-05-26 11:58:23.510671] $GPRMC,100514.00,A,3819.22036,N,02638.75219,E,2.988,213.96,260524,,,A*6D

[2024-05-26 11:58:24.507913] $GPRMC,100515.00,A,3819.22028,N,02638.75207,E,0.206,,260524,,,A*72

[2024-05-26 11:58:25.513440] $GPRMC,100516.00,A,3819.22032,N,02638.75206,E,0.131,,260524,,,A*7C

[2024-05-26 11:58:26.508169] $GPRMC,100517.00,A,3819.22030,N,02638.75200,E,0.227,,260524,,,A*7D

[2024-05-26 11:58:27.505264] $GPRMC,100518.00,A,3819.22052,N,02638.75222,E,0.851,214.75,260524,,,A*66

[2024-05-26 11:58:28.504235] $GPRMC,100519.00,A,3819.21983,N,02638.75163,E,3.142,215.16,260524,,,A*6B

[2024-05-26 11:58:29.509555] $GPRMC,100520.00,A,3819.21917,N,02638.75087,E,4.447,221.42,260524,,,A*66

[2024-05-26 11:58:30.506699] $GPRMC,100521.00,A,3819.21761,N,02638.74924,E,6.718,219.95,260524,,,A*63

[2024-05-26 11:58:31.519659] $GPRMC,100522.00,A,3819.21603,N,02638.74736,E,8.413,222.65,260524,,,A*69

[2024-05-26 11:58:32.507520] $GPRMC,100523.00,A,3819.21405,N,02638.74505,E,10.340,221.93,260524,,,A*5C

[2024-05-26 11:58:33.508172] $GPRMC,100524.00,A,3819.21167,N,02638.74235,E,11.621,221.60,260524,,,A*51

[2024-05-26 11:58:34.506414] $GPRMC,100525.00,A,3819.20903,N,02638.73949,E,12.651,221.56,260524,,,A*5D

[2024-05-26 11:58:35.510064] $GPRMC,100526.00,A,3819.20626,N,02638.73632,E,13.394,221.15,260524,,,A*5F

[2024-05-26 11:58:36.506747] $GPRMC,100527.00,A,3819.20349,N,02638.73317,E,13.545,221.12,260524,,,A*5D

[2024-05-26 11:58:37.507768] $GPRMC,100528.00,A,3819.20095,N,02638.73022,E,12.045,221.97,260524,,,A*5C

[2024-05-26 11:58:38.506627] $GPRMC,100529.00,A,3819.19853,N,02638.72738,E,11.712,221.74,260524,,,A*53

[2024-05-26 11:58:39.507888] $GPRMC,100530.00,A,3819.19592,N,02638.72449,E,12.710,221.62,260524,,,A*58

[2024-05-26 11:58:40.507683] $GPRMC,100531.00,A,3819.19307,N,02638.72138,E,13.920,221.64,260524,,,A*5A

[2024-05-26 11:58:41.511904] $GPRMC,100532.00,A,3819.19004,N,02638.71801,E,14.731,221.81,260524,,,A*5B

[2024-05-26 11:58:42.509964] $GPRMC,100533.00,A,3819.18683,N,02638.71438,E,15.704,221.71,260524,,,A*5C

[2024-05-26 11:58:43.511396] $GPRMC,100534.00,A,3819.18355,N,02638.71068,E,15.888,221.57,260524,,,A*5B

[2024-05-26 11:58:44.506882] $GPRMC,100535.00,A,3819.18012,N,02638.70680,E,16.658,221.58,260524,,,A*54

[2024-05-26 11:58:45.510599] $GPRMC,100536.00,A,3819.17660,N,02638.70273,E,17.150,222.02,260524,,,A*51

[2024-05-26 11:58:46.510408] $GPRMC,100537.00,A,3819.17303,N,02638.69853,E,17.632,222.52,260524,,,A*56

[2024-05-26 11:58:47.508706] $GPRMC,100538.00,A,3819.16930,N,02638.69413,E,18.380,222.66,260524,,,A*5E

[2024-05-26 11:58:48.506669] $GPRMC,100539.00,A,3819.16552,N,02638.68966,E,18.507,222.73,260524,,,A*54

[2024-05-26 11:58:49.508916] $GPRMC,100540.00,A,3819.16174,N,02638.68519,E,18.569,222.65,260524,,,A*51

[2024-05-26 11:58:50.511844] $GPRMC,100541.00,A,3819.15793,N,02638.68069,E,18.701,222.75,260524,,,A*53

[2024-05-26 11:58:51.511600] $GPRMC,100542.00,A,3819.15408,N,02638.67614,E,18.908,222.73,260524,,,A*53

[2024-05-26 11:58:52.506779] $GPRMC,100543.00,A,3819.15024,N,02638.67167,E,18.646,222.13,260524,,,A*58

[2024-05-26 11:58:53.505910] $GPRMC,100544.00,A,3819.14656,N,02638.66733,E,18.106,222.28,260524,,,A*50

[2024-05-26 11:58:54.509162] $GPRMC,100545.00,A,3819.14293,N,02638.66303,E,17.923,222.71,260524,,,A*57

[2024-05-26 11:58:55.515067] $GPRMC,100546.00,A,3819.13933,N,02638.65878,E,17.658,222.85,260524,,,A*5E

[2024-05-26 11:58:56.509149] $GPRMC,100547.00,A,3819.13589,N,02638.65470,E,16.814,222.93,260524,,,A*56

[2024-05-26 11:58:57.508922] $GPRMC,100548.00,A,3819.13252,N,02638.65070,E,16.458,222.82,260524,,,A*58

[2024-05-26 11:58:58.508006] $GPRMC,100549.00,A,3819.12934,N,02638.64691,E,15.279,223.09,260524,,,A*5F

[2024-05-26 11:58:59.512497] $GPRMC,100550.00,A,3819.12658,N,02638.64361,E,13.139,223.22,260524,,,A*50

[2024-05-26 11:59:00.511235] $GPRMC,100551.00,A,3819.12425,N,02638.64082,E,11.320,223.67,260524,,,A*5E

[2024-05-26 11:59:01.508891] $GPRMC,100552.00,A,3819.12225,N,02638.63844,E,9.455,222.32,260524,,,A*63

[2024-05-26 11:59:02.506858] $GPRMC,100553.00,A,3819.12001,N,02638.63588,E,11.314,222.06,260524,,,A*57

[2024-05-26 11:59:03.511715] $GPRMC,100554.00,A,3819.11747,N,02638.63290,E,12.854,222.49,260524,,,A*5F

[2024-05-26 11:59:04.509924] $GPRMC,100555.00,A,3819.11484,N,02638.62968,E,13.820,224.66,260524,,,A*56

[2024-05-26 11:59:05.512058] $GPRMC,100556.00,A,3819.11201,N,02638.62621,E,14.575,223.55,260524,,,A*51

[2024-05-26 11:59:06.510312] $GPRMC,100557.00,A,3819.10888,N,02638.62252,E,15.527,222.07,260524,,,A*5A

[2024-05-26 11:59:07.507976] $GPRMC,100558.00,A,3819.10554,N,02638.61864,E,16.814,223.21,260524,,,A*5E

[2024-05-26 11:59:08.505980] $GPRMC,100559.00,A,3819.10203,N,02638.61444,E,17.567,223.58,260524,,,A*52

[2024-05-26 11:59:09.508537] $GPRMC,100600.00,A,3819.09840,N,02638.61010,E,18.240,223.46,260524,,,A*5F

[2024-05-26 11:59:10.506966] $GPRMC,100601.00,A,3819.09457,N,02638.60559,E,18.523,222.32,260524,,,A*5D

[2024-05-26 11:59:11.506976] $GPRMC,100602.00,A,3819.09043,N,02638.60081,E,19.877,222.76,260524,,,A*52

[2024-05-26 11:59:12.511775] $GPRMC,100603.00,A,3819.08607,N,02638.59582,E,20.951,222.67,260524,,,A*57

[2024-05-26 11:59:13.509231] $GPRMC,100604.00,A,3819.08177,N,02638.59076,E,21.137,222.67,260524,,,A*57

[2024-05-26 11:59:14.505869] $GPRMC,100605.00,A,3819.07736,N,02638.58564,E,21.519,222.39,260524,,,A*5E

[2024-05-26 11:59:15.510992] $GPRMC,100606.00,A,3819.07282,N,02638.58034,E,21.986,222.37,260524,,,A*53

[2024-05-26 11:59:16.509347] $GPRMC,100607.00,A,3819.06817,N,02638.57500,E,22.476,222.36,260524,,,A*58

[2024-05-26 11:59:17.509380] $GPRMC,100608.00,A,3819.06343,N,02638.56944,E,23.295,223.03,260524,,,A*5D

[2024-05-26 11:59:18.507473] $GPRMC,100609.00,A,3819.05867,N,02638.56366,E,23.594,223.94,260524,,,A*50

[2024-05-26 11:59:19.507295] $GPRMC,100610.00,A,3819.05391,N,02638.55778,E,23.742,224.39,260524,,,A*5B

[2024-05-26 11:59:20.508929] $GPRMC,100611.00,A,3819.04930,N,02638.55194,E,23.431,224.83,260524,,,A*58

[2024-05-26 11:59:21.511203] $GPRMC,100612.00,A,3819.04498,N,02638.54623,E,22.316,226.56,260524,,,A*57

[2024-05-26 11:59:22.511885] $GPRMC,100613.00,A,3819.04061,N,02638.54044,E,22.788,226.23,260524,,,A*52

[2024-05-26 11:59:23.508211] $GPRMC,100614.00,A,3819.03621,N,02638.53454,E,22.855,226.62,260524,,,A*58

[2024-05-26 11:59:24.509131] $GPRMC,100615.00,A,3819.03188,N,02638.52862,E,23.105,227.49,260524,,,A*50

[2024-05-26 11:59:25.518408] $GPRMC,100616.00,A,3819.02763,N,02638.52261,E,22.935,228.47,260524,,,A*53

[2024-05-26 11:59:26.513993] $GPRMC,100617.00,A,3819.02352,N,02638.51663,E,22.239,229.66,260524,,,A*54

[2024-05-26 11:59:27.508586] $GPRMC,100618.00,A,3819.01974,N,02638.51079,E,21.447,231.07,260524,,,A*59

[2024-05-26 11:59:28.506170] $GPRMC,100619.00,A,3819.01605,N,02638.50487,E,20.948,232.17,260524,,,A*54

[2024-05-26 11:59:29.508289] $GPRMC,100620.00,A,3819.01245,N,02638.49917,E,20.678,231.28,260524,,,A*51

[2024-05-26 11:59:30.510497] $GPRMC,100621.00,A,3819.00894,N,02638.49357,E,19.474,233.35,260524,,,A*53

[2024-05-26 11:59:31.522834] $GPRMC,100622.00,A,3819.00584,N,02638.48832,E,17.800,234.29,260524,,,A*5E

[2024-05-26 11:59:32.506227] $GPRMC,100623.00,A,3819.00318,N,02638.48375,E,15.429,234.25,260524,,,A*5D

[2024-05-26 11:59:33.509447] $GPRMC,100624.00,A,3819.00095,N,02638.47991,E,11.757,235.66,260524,,,A*5B

[2024-05-26 11:59:34.512366] $GPRMC,100625.00,A,3818.99902,N,02638.47665,E,10.402,237.52,260524,,,A*5F

[2024-05-26 11:59:35.511465] $GPRMC,100626.00,A,3818.99729,N,02638.47372,E,9.130,237.82,260524,,,A*69

[2024-05-26 11:59:36.508132] $GPRMC,100627.00,A,3818.99539,N,02638.47055,E,10.694,237.63,260524,,,A*53

[2024-05-26 11:59:37.507742] $GPRMC,100628.00,A,3818.99329,N,02638.46679,E,12.969,237.93,260524,,,A*52

[2024-05-26 11:59:38.506664] $GPRMC,100629.00,A,3818.99096,N,02638.46237,E,15.362,238.10,260524,,,A*58

[2024-05-26 11:59:39.510648] $GPRMC,100630.00,A,3818.98836,N,02638.45730,E,17.631,237.92,260524,,,A*56

[2024-05-26 11:59:40.510246] $GPRMC,100631.00,A,3818.98561,N,02638.45170,E,19.046,238.32,260524,,,A*57

[2024-05-26 11:59:41.509324] $GPRMC,100632.00,A,3818.98258,N,02638.44557,E,20.747,238.74,260524,,,A*57

[2024-05-26 11:59:42.507595] $GPRMC,100633.00,A,3818.97928,N,02638.43901,E,22.340,238.26,260524,,,A*5B

[2024-05-26 11:59:43.514725] $GPRMC,100634.00,A,3818.97584,N,02638.43214,E,23.331,238.18,260524,,,A*53

[2024-05-26 11:59:44.511605] $GPRMC,100635.00,A,3818.97233,N,02638.42498,E,24.055,238.37,260524,,,A*51

[2024-05-26 11:59:45.511984] $GPRMC,100636.00,A,3818.96874,N,02638.41767,E,24.381,238.39,260524,,,A*5E

[2024-05-26 11:59:46.508348] $GPRMC,100637.00,A,3818.96509,N,02638.41031,E,24.670,238.24,260524,,,A*5B

[2024-05-26 11:59:47.507860] $GPRMC,100638.00,A,3818.96146,N,02638.40289,E,24.632,238.46,260524,,,A*59

[2024-05-26 11:59:48.507423] $GPRMC,100639.00,A,3818.95782,N,02638.39542,E,24.947,238.20,260524,,,A*56

[2024-05-26 11:59:49.508811] $GPRMC,100640.00,A,3818.95411,N,02638.38792,E,25.109,238.25,260524,,,A*59

[2024-05-26 11:59:50.507747] $GPRMC,100641.00,A,3818.95038,N,02638.38028,E,25.394,238.37,260524,,,A*54

[2024-05-26 11:59:51.508450] $GPRMC,100642.00,A,3818.94662,N,02638.37260,E,25.608,238.39,260524,,,A*50

[2024-05-26 11:59:52.512292] $GPRMC,100643.00,A,3818.94291,N,02638.36495,E,25.283,238.37,260524,,,A*5D

[2024-05-26 11:59:53.512596] $GPRMC,100644.00,A,3818.93926,N,02638.35744,E,24.757,238.40,260524,,,A*5B

[2024-05-26 11:59:54.508971] $GPRMC,100645.00,A,3818.93567,N,02638.35013,E,24.209,238.28,260524,,,A*56

[2024-05-26 11:59:55.516584] $GPRMC,100646.00,A,3818.93213,N,02638.34298,E,23.742,238.24,260524,,,A*50

[2024-05-26 11:59:56.510670] $GPRMC,100647.00,A,3818.92868,N,02638.33586,E,23.559,238.53,260524,,,A*51

[2024-05-26 11:59:57.508892] $GPRMC,100648.00,A,3818.92531,N,02638.32889,E,23.087,238.55,260524,,,A*5C

[2024-05-26 11:59:58.507907] $GPRMC,100649.00,A,3818.92199,N,02638.32214,E,22.308,237.97,260524,,,A*51

[2024-05-26 11:59:59.508720] $GPRMC,100650.00,A,3818.91881,N,02638.31578,E,20.849,237.47,260524,,,A*55

[2024-05-26 12:00:00.506942] $GPRMC,100651.00,A,3818.91582,N,02638.30975,E,19.756,237.84,260524,,,A*5E

[2024-05-26 12:00:01.511941] $GPRMC,100652.00,A,3818.91307,N,02638.30419,E,18.059,237.78,260524,,,A*5B

[2024-05-26 12:00:02.510643] $GPRMC,100653.00,A,3818.91066,N,02638.29933,E,15.720,238.32,260524,,,A*56

[2024-05-26 12:00:03.508628] $GPRMC,100654.00,A,3818.90877,N,02638.29545,E,11.700,238.33,260524,,,A*52

[2024-05-26 12:00:04.507913] $GPRMC,100655.00,A,3818.90726,N,02638.29229,E,9.946,239.17,260524,,,A*67

[2024-05-26 12:00:05.511041] $GPRMC,100656.00,A,3818.90590,N,02638.28950,E,8.637,238.26,260524,,,A*64

[2024-05-26 12:00:06.508507] $GPRMC,100657.00,A,3818.90449,N,02638.28666,E,9.829,238.02,260524,,,A*6C

[2024-05-26 12:00:07.508825] $GPRMC,100658.00,A,3818.90284,N,02638.28336,E,11.657,238.09,260524,,,A*51

[2024-05-26 12:00:08.509222] $GPRMC,100659.00,A,3818.90092,N,02638.27952,E,13.282,238.17,260524,,,A*53

[2024-05-26 12:00:09.510083] $GPRMC,100700.00,A,3818.89880,N,02638.27520,E,14.851,238.40,260524,,,A*55

[2024-05-26 12:00:10.511887] $GPRMC,100701.00,A,3818.89656,N,02638.27066,E,15.254,237.70,260524,,,A*54

[2024-05-26 12:00:11.512410] $GPRMC,100702.00,A,3818.89446,N,02638.26631,E,14.203,238.11,260524,,,A*5A

[2024-05-26 12:00:12.606630] $GPRMC,100703.00,A,3818.89261,N,02638.26246,E,12.084,239.12,260524,,,A*5A

[2024-05-26 12:00:13.251921] $GPRMC,100703.64,V,,,,,,,260524,,,N*7D

[2024-05-26 12:00:13.651287] $GPRMC,100704.00,V,,,,,,,260524,,,N*78

[2024-05-26 12:00:14.117236] $GPRMC,100704.50,A,3818.89008,N,02638.25371,E,10.058,238.07,260524,,,A*5A

[2024-05-26 12:00:14.649753] $GPRMC,100705.00,A,3818.88943,N,02638.25367,E,10.426,238.01,260524,,,A*55

[2024-05-26 12:00:15.510707] $GPRMC,100706.00,A,3818.88888,N,02638.25095,E,11.729,239.09,260524,,,A*5A

[2024-05-26 12:00:16.510499] $GPRMC,100707.00,A,3818.88704,N,02638.24664,E,13.938,241.55,260524,,,A*53

[2024-05-26 12:00:17.510325] $GPRMC,100708.00,A,3818.88466,N,02638.24202,E,14.922,240.83,260524,,,A*59

[2024-05-26 12:00:18.513837] $GPRMC,100709.00,A,3818.88250,N,02638.23680,E,15.948,241.14,260524,,,A*50

[2024-05-26 12:00:19.515800] $GPRMC,100710.00,A,3818.88018,N,02638.23200,E,17.018,239.23,260524,,,A*5F

[2024-05-26 12:00:20.510812] $GPRMC,100711.00,A,3818.87765,N,02638.22682,E,17.378,237.62,260524,,,A*5D

[2024-05-26 12:00:21.512852] $GPRMC,100712.00,A,3818.87507,N,02638.22150,E,18.336,239.55,260524,,,A*5F

[2024-05-26 12:00:22.511675] $GPRMC,100713.00,A,3818.87252,N,02638.21592,E,18.431,239.23,260524,,,A*51

[2024-05-26 12:00:23.510760] $GPRMC,100714.00,A,3818.87002,N,02638.21062,E,17.697,239.88,260524,,,A*5B

[2024-05-26 12:00:24.510845] $GPRMC,100715.00,A,3818.86771,N,02638.20526,E,16.760,240.14,260524,,,A*5F

[2024-05-26 12:00:25.510927] $GPRMC,100716.00,A,3818.86530,N,02638.20002,E,17.036,238.81,260524,,,A*5E

[2024-05-26 12:00:26.516528] $GPRMC,100717.00,A,3818.86275,N,02638.19471,E,17.816,238.55,260524,,,A*50

[2024-05-26 12:00:27.508860] $GPRMC,100718.00,A,3818.86016,N,02638.18922,E,18.524,240.72,260524,,,A*5B

[2024-05-26 12:00:28.508468] $GPRMC,100719.00,A,3818.85753,N,02638.18357,E,18.778,240.43,260524,,,A*5E

[2024-05-26 12:00:29.510971] $GPRMC,100720.00,A,3818.85484,N,02638.17789,E,19.209,238.91,260524,,,A*57

[2024-05-26 12:00:30.510012] $GPRMC,100721.00,A,3818.85191,N,02638.17211,E,19.624,238.17,260524,,,A*56

[2024-05-26 12:00:31.509575] $GPRMC,100722.00,A,3818.84889,N,02638.16615,E,20.174,238.37,260524,,,A*5F

[2024-05-26 12:00:32.508083] $GPRMC,100723.00,A,3818.84593,N,02638.16022,E,20.033,240.28,260524,,,A*59

[2024-05-26 12:00:33.512530] $GPRMC,100724.00,A,3818.84300,N,02638.15429,E,19.544,240.61,260524,,,A*5C

[2024-05-26 12:00:34.508933] $GPRMC,100725.00,A,3818.84015,N,02638.14861,E,19.011,239.31,260524,,,A*55

[2024-05-26 12:00:35.510564] $GPRMC,100726.00,A,3818.83737,N,02638.14302,E,18.687,238.87,260524,,,A*5C

[2024-05-26 12:00:36.508068] $GPRMC,100727.00,A,3818.83457,N,02638.13750,E,18.731,239.35,260524,,,A*58

[2024-05-26 12:00:37.509507] $GPRMC,100728.00,A,3818.83182,N,02638.13194,E,18.804,239.51,260524,,,A*5F

[2024-05-26 12:00:38.511924] $GPRMC,100729.00,A,3818.82905,N,02638.12631,E,19.170,238.37,260524,,,A*5B

[2024-05-26 12:00:39.512157] $GPRMC,100730.00,A,3818.82613,N,02638.12069,E,19.476,238.35,260524,,,A*51

[2024-05-26 12:00:40.511181] $GPRMC,100731.00,A,3818.82332,N,02638.11468,E,19.895,238.09,260524,,,A*5E

[2024-05-26 12:00:41.510035] $GPRMC,100732.00,A,3818.82043,N,02638.10870,E,19.817,239.22,260524,,,A*5E

[2024-05-26 12:00:42.514073] $GPRMC,100733.00,A,3818.81751,N,02638.10252,E,20.216,239.43,260524,,,A*54

[2024-05-26 12:00:43.512214] $GPRMC,100734.00,A,3818.81476,N,02638.09660,E,19.157,239.08,260524,,,A*5B

[2024-05-26 12:00:44.511489] $GPRMC,100735.00,A,3818.81221,N,02638.09123,E,17.255,238.73,260524,,,A*5C

[2024-05-26 12:00:45.509141] $GPRMC,100736.00,A,3818.80999,N,02638.08679,E,14.182,238.96,260524,,,A*5E

[2024-05-26 12:00:46.508067] $GPRMC,100737.00,A,3818.80830,N,02638.08331,E,10.676,238.80,260524,,,A*5B

[2024-05-26 12:00:47.508206] $GPRMC,100738.00,A,3818.80697,N,02638.08058,E,8.628,238.36,260524,,,A*64

[2024-05-26 12:00:48.510907] $GPRMC,100739.00,A,3818.80582,N,02638.07823,E,7.662,238.04,260524,,,A*69

[2024-05-26 12:00:49.508554] $GPRMC,100740.00,A,3818.80462,N,02638.07570,E,8.654,239.76,260524,,,A*6D

[2024-05-26 12:00:50.508807] $GPRMC,100741.00,A,3818.80322,N,02638.07273,E,10.283,238.94,260524,,,A*51

[2024-05-26 12:00:51.512095] $GPRMC,100742.00,A,3818.80154,N,02638.06919,E,12.224,238.85,260524,,,A*58

[2024-05-26 12:00:52.511063] $GPRMC,100743.00,A,3818.79979,N,02638.06524,E,12.686,238.32,260524,,,A*5A

[2024-05-26 12:00:53.509133] $GPRMC,100744.00,A,3818.79769,N,02638.06085,E,14.928,238.40,260524,,,A*54

[2024-05-26 12:00:54.508952] $GPRMC,100745.00,A,3818.79534,N,02638.05609,E,16.066,238.46,260524,,,A*59

[2024-05-26 12:00:55.509006] $GPRMC,100746.00,A,3818.79311,N,02638.05144,E,15.087,239.43,260524,,,A*5D

[2024-05-26 12:00:56.509181] $GPRMC,100747.00,A,3818.79129,N,02638.04704,E,13.607,243.26,260524,,,A*50

[2024-05-26 12:00:57.510612] $GPRMC,100748.00,A,3818.79015,N,02638.04275,E,12.692,250.86,260524,,,A*57

[2024-05-26 12:00:58.506760] $GPRMC,100749.00,A,3818.78992,N,02638.03856,E,12.426,269.78,260524,,,A*5B

[2024-05-26 12:00:59.506551] $GPRMC,100750.00,A,3818.79075,N,02638.03435,E,12.562,279.76,260524,,,A*55

[2024-05-26 12:01:00.510832] $GPRMC,100751.00,A,3818.79285,N,02638.03064,E,13.761,303.30,260524,,,A*57

[2024-05-26 12:01:01.511211] $GPRMC,100752.00,A,3818.79580,N,02638.02709,E,14.686,318.16,260524,,,A*5A

[2024-05-26 12:01:02.508868] $GPRMC,100753.00,A,3818.79936,N,02638.02382,E,15.918,328.26,260524,,,A*54

[2024-05-26 12:01:03.509048] $GPRMC,100754.00,A,3818.80351,N,02638.02125,E,16.879,337.25,260524,,,A*59

[2024-05-26 12:01:04.510769] $GPRMC,100755.00,A,3818.80823,N,02638.01945,E,17.952,344.77,260524,,,A*51

[2024-05-26 12:01:05.508921] $GPRMC,100756.00,A,3818.81294,N,02638.01830,E,16.991,351.73,260524,,,A*58

[2024-05-26 12:01:06.508906] $GPRMC,100757.00,A,3818.81834,N,02638.01786,E,18.534,1.46,260524,,,A*56

[2024-05-26 12:01:07.506934] $GPRMC,100758.00,A,3818.82375,N,02638.01859,E,20.019,7.83,260524,,,A*57

[2024-05-26 12:01:08.508253] $GPRMC,100759.00,A,3818.82946,N,02638.01962,E,21.196,9.01,260524,,,A*56

[2024-05-26 12:01:09.511067] $GPRMC,100800.00,A,3818.83533,N,02638.02099,E,20.923,9.13,260524,,,A*50

[2024-05-26 12:01:10.510521] $GPRMC,100801.00,A,3818.84110,N,02638.02228,E,20.800,9.20,260524,,,A*5B

[2024-05-26 12:01:11.508858] $GPRMC,100802.00,A,3818.84695,N,02638.02367,E,21.408,10.08,260524,,,A*6F

[2024-05-26 12:01:12.509061] $GPRMC,100803.00,A,3818.85295,N,02638.02517,E,22.112,10.52,260524,,,A*68

[2024-05-26 12:01:13.537204] $GPRMC,100804.00,A,3818.85911,N,02638.02663,E,22.737,10.37,260524,,,A*6A

[2024-05-26 12:01:14.511063] $GPRMC,100805.00,A,3818.86529,N,02638.02806,E,22.446,10.25,260524,,,A*64

[2024-05-26 12:01:15.510880] $GPRMC,100806.00,A,3818.87133,N,02638.02939,E,21.678,10.18,260524,,,A*66

[2024-05-26 12:01:16.509477] $GPRMC,100807.00,A,3818.87718,N,02638.03086,E,21.282,11.98,260524,,,A*6C

[2024-05-26 12:01:17.509710] $GPRMC,100808.00,A,3818.88286,N,02638.03219,E,20.758,10.70,260524,,,A*6E

[2024-05-26 12:01:18.511154] $GPRMC,100809.00,A,3818.88855,N,02638.03360,E,20.733,9.95,260524,,,A*5A

[2024-05-26 12:01:19.512571] $GPRMC,100810.00,A,3818.89437,N,02638.03495,E,21.246,9.78,260524,,,A*53

[2024-05-26 12:01:20.509429] $GPRMC,100811.00,A,3818.90033,N,02638.03640,E,21.844,10.19,260524,,,A*67

[2024-05-26 12:01:21.510173] $GPRMC,100812.00,A,3818.90643,N,02638.03792,E,22.242,10.12,260524,,,A*6F

[2024-05-26 12:01:22.512594] $GPRMC,100813.00,A,3818.91261,N,02638.03942,E,22.499,9.84,260524,,,A*5F

[2024-05-26 12:01:23.512711] $GPRMC,100814.00,A,3818.91880,N,02638.04085,E,22.460,9.82,260524,,,A*58

[2024-05-26 12:01:24.514129] $GPRMC,100815.00,A,3818.92494,N,02638.04228,E,22.325,10.30,260524,,,A*61

[2024-05-26 12:01:25.518726] $GPRMC,100816.00,A,3818.93103,N,02638.04372,E,22.262,10.67,260524,,,A*66

[2024-05-26 12:01:26.513141] $GPRMC,100817.00,A,3818.93711,N,02638.04529,E,22.149,10.89,260524,,,A*60

[2024-05-26 12:01:27.514059] $GPRMC,100818.00,A,3818.94322,N,02638.04691,E,22.099,10.38,260524,,,A*6A

[2024-05-26 12:01:28.513463] $GPRMC,100819.00,A,3818.94936,N,02638.04845,E,22.308,10.35,260524,,,A*65

[2024-05-26 12:01:29.513544] $GPRMC,100820.00,A,3818.95552,N,02638.04991,E,22.491,10.28,260524,,,A*63

[2024-05-26 12:01:30.514291] $GPRMC,100821.00,A,3818.96175,N,02638.05132,E,22.656,10.21,260524,,,A*60

[2024-05-26 12:01:31.512235] $GPRMC,100822.00,A,3818.96793,N,02638.05270,E,22.325,9.80,260524,,,A*5A

[2024-05-26 12:01:32.511812] $GPRMC,100823.00,A,3818.97400,N,02638.05409,E,21.931,10.09,260524,,,A*6E

[2024-05-26 12:01:33.512551] $GPRMC,100824.00,A,3818.97991,N,02638.05546,E,21.395,10.40,260524,,,A*6F

[2024-05-26 12:01:34.510434] $GPRMC,100825.00,A,3818.98568,N,02638.05684,E,20.877,10.74,260524,,,A*67

[2024-05-26 12:01:35.515819] $GPRMC,100826.00,A,3818.99133,N,02638.05825,E,20.381,10.50,260524,,,A*6E

[2024-05-26 12:01:36.513568] $GPRMC,100827.00,A,3818.99688,N,02638.05966,E,20.179,10.89,260524,,,A*6F

[2024-05-26 12:01:37.513516] $GPRMC,100828.00,A,3819.00240,N,02638.06100,E,20.104,10.22,260524,,,A*61

[2024-05-26 12:01:38.514329] $GPRMC,100829.00,A,3819.00782,N,02638.06230,E,19.491,10.31,260524,,,A*6A

[2024-05-26 12:01:39.513505] $GPRMC,100830.00,A,3819.01309,N,02638.06364,E,19.062,10.88,260524,,,A*6E

[2024-05-26 12:01:40.511322] $GPRMC,100831.00,A,3819.01822,N,02638.06491,E,18.606,11.45,260524,,,A*65

[2024-05-26 12:01:41.511903] $GPRMC,100832.00,A,3819.02316,N,02638.06649,E,18.016,14.83,260524,,,A*66

[2024-05-26 12:01:42.509998] $GPRMC,100833.00,A,3819.02782,N,02638.06856,E,17.451,20.06,260524,,,A*6C

[2024-05-26 12:01:43.511033] $GPRMC,100834.00,A,3819.03202,N,02638.07086,E,16.019,24.92,260524,,,A*63

[2024-05-26 12:01:44.510926] $GPRMC,100835.00,A,3819.03577,N,02638.07339,E,14.531,28.74,260524,,,A*69

[2024-05-26 12:01:45.510784] $GPRMC,100836.00,A,3819.03901,N,02638.07608,E,13.420,34.23,260524,,,A*69

[2024-05-26 12:01:46.272639] $GPRMC,100836.66,V,,,,,,,260524,,,N*76

[2024-05-26 12:01:46.672013] $GPRMC,100837.00,V,,,,,,,260524,,,N*77

[2024-05-26 12:01:47.104659] $GPRMC,100837.50,A,3819.04346,N,02638.08493,E,12.665,44.32,260524,,,A*69

[2024-05-26 12:01:47.670453] $GPRMC,100838.00,A,3819.04452,N,02638.08528,E,12.453,45.86,260524,,,A*69

[2024-05-26 12:01:48.511287] $GPRMC,100839.00,A,3819.04585,N,02638.08797,E,11.493,48.36,260524,,,A*6C

[2024-05-26 12:01:49.510519] $GPRMC,100840.00,A,3819.04808,N,02638.08980,E,9.835,53.28,260524,,,A*5E

[2024-05-26 12:01:50.511393] $GPRMC,100841.00,A,3819.04945,N,02638.09071,E,9.600,57.41,260524,,,A*52

[2024-05-26 12:01:51.516335] $GPRMC,100842.00,A,3819.05058,N,02638.09484,E,10.182,60.69,260524,,,A*60

[2024-05-26 12:01:53.35241] $GPRMC,100843.42,V,,,,,,,260524,,,N*72

[2024-05-26 12:01:53.562478] $GPRMC,100844.00,V,,,,,,,260524,,,N*73

[2024-05-26 12:01:54.506649] $GPRMC,100845.00,A,3819.05543,N,02638.10395,E,14.623,70.20,260524,,,A*63

[2024-05-26 12:01:55.511525] $GPRMC,100846.00,A,3819.05566,N,02638.11157,E,16.510,77.30,260524,,,A*6D

[2024-05-26 12:01:56.510798] $GPRMC,100847.00,A,3819.05552,N,02638.11770,E,17.472,82.03,260524,,,A*66

[2024-05-26 12:01:57.511097] $GPRMC,100848.00,A,3819.05567,N,02638.12431,E,19.252,84.78,260524,,,A*6A

[2024-05-26 12:01:58.513460] $GPRMC,100849.00,A,3819.05642,N,02638.13196,E,20.140,86.59,260524,,,A*6D

[2024-05-26 12:01:59.298640] $GPRMC,100849.68,V,,,,,,,260524,,,N*70

[2024-05-26 12:01:59.698029] $GPRMC,100850.00,V,,,,,,,260524,,,N*76

[2024-05-26 12:02:00.97424] $GPRMC,100850.50,V,,,,,,,260524,,,N*73

[2024-05-26 12:02:00.563331] $GPRMC,100851.00,A,3819.05750,N,02638.14771,E,21.066,87.86,260524,,,A*69

[2024-05-26 12:02:01.513925] $GPRMC,100852.00,A,3819.05666,N,02638.15436,E,20.307,88.43,260524,,,A*6C

[2024-05-26 12:02:02.511824] $GPRMC,100853.00,A,3819.05807,N,02638.16167,E,19.794,86.24,260524,,,A*6D

[2024-05-26 12:02:03.517997] $GPRMC,100854.00,A,3819.05891,N,02638.16860,E,19.435,83.47,260524,,,A*63

[2024-05-26 12:02:04.511607] $GPRMC,100855.00,A,3819.05895,N,02638.17525,E,19.222,80.96,260524,,,A*64

[2024-05-26 12:02:05.18893] $GPRMC,100855.40,V,,,,,,,260524,,,N*77

[2024-05-26 12:02:05.558141] $GPRMC,100855.94,V,,,,,,,260524,,,N*7E

[2024-05-26 12:02:06.57896] $GPRMC,100856.50,V,,,,,,,260524,,,N*75

[2024-05-26 12:02:06.523824] $GPRMC,100857.00,A,3819.06193,N,02638.18774,E,19.398,69.29,260524,,,A*60

[2024-05-26 12:02:07.504998] $GPRMC,100858.00,A,3819.06202,N,02638.19722,E,19.630,64.64,260524,,,A*65

[2024-05-26 12:02:08.511605] $GPRMC,100859.00,A,3819.06587,N,02638.20075,E,19.005,60.76,260524,,,A*66

[2024-05-26 12:02:09.512528] $GPRMC,100900.00,A,3819.06935,N,02638.20585,E,19.066,56.48,260524,,,A*69

[2024-05-26 12:02:10.512459] $GPRMC,100901.00,A,3819.07234,N,02638.21170,E,18.897,51.39,260524,,,A*6A

[2024-05-26 12:02:11.516345] $GPRMC,100902.00,A,3819.07575,N,02638.21616,E,17.646,45.41,260524,,,A*6B

[2024-05-26 12:02:12.518892] $GPRMC,100903.00,A,3819.07917,N,02638.22056,E,18.361,41.87,260524,,,A*62

[2024-05-26 12:02:13.512945] $GPRMC,100904.00,A,3819.08338,N,02638.22449,E,19.045,38.65,260524,,,A*61

[2024-05-26 12:02:14.514567] $GPRMC,100905.00,A,3819.08804,N,02638.22857,E,19.249,33.58,260524,,,A*6C

[2024-05-26 12:02:15.514624] $GPRMC,100906.00,A,3819.09306,N,02638.23180,E,19.045,28.26,260524,,,A*68

[2024-05-26 12:02:16.512652] $GPRMC,100907.00,A,3819.09832,N,02638.23445,E,19.236,24.85,260524,,,A*6A

[2024-05-26 12:02:17.513856] $GPRMC,100908.00,A,3819.10359,N,02638.23663,E,19.169,19.06,260524,,,A*61

[2024-05-26 12:02:18.512880] $GPRMC,100909.00,A,3819.10888,N,02638.23820,E,19.733,14.02,260524,,,A*6E

[2024-05-26 12:02:19.508040] $GPRMC,100910.00,A,3819.11406,N,02638.23916,E,19.571,12.81,260524,,,A*60

[2024-05-26 12:02:20.513701] $GPRMC,100911.00,A,3819.11980,N,02638.24040,E,21.167,10.56,260524,,,A*6F

[2024-05-26 12:02:21.509123] $GPRMC,100912.00,A,3819.12580,N,02638.24144,E,21.586,7.64,260524,,,A*5A

[2024-05-26 12:02:22.508680] $GPRMC,100913.00,A,3819.13192,N,02638.24280,E,22.144,9.44,260524,,,A*53

[2024-05-26 12:02:23.508904] $GPRMC,100914.00,A,3819.13809,N,02638.24424,E,22.540,10.17,260524,,,A*69

[2024-05-26 12:02:24.508063] $GPRMC,100915.00,A,3819.14440,N,02638.24565,E,22.827,9.63,260524,,,A*5D

[2024-05-26 12:02:25.514742] $GPRMC,100916.00,A,3819.15063,N,02638.24729,E,22.972,11.62,260524,,,A*69

[2024-05-26 12:02:26.513117] $GPRMC,100917.00,A,3819.15692,N,02638.24871,E,22.965,9.75,260524,,,A*5B

[2024-05-26 12:02:27.511732] $GPRMC,100918.00,A,3819.16323,N,02638.25029,E,23.271,10.48,260524,,,A*65

[2024-05-26 12:02:28.511561] $GPRMC,100919.00,A,3819.16973,N,02638.25174,E,23.478,10.48,260524,,,A*6D

[2024-05-26 12:02:29.511720] $GPRMC,100920.00,A,3819.17621,N,02638.25328,E,23.653,10.46,260524,,,A*60

[2024-05-26 12:02:30.512153] $GPRMC,100921.00,A,3819.18275,N,02638.25472,E,23.822,9.81,260524,,,A*58

[2024-05-26 12:02:31.511357] $GPRMC,100922.00,A,3819.18935,N,02638.25576,E,23.892,7.49,260524,,,A*50

[2024-05-26 12:02:32.509976] $GPRMC,100923.00,A,3819.19594,N,02638.25643,E,23.484,5.06,260524,,,A*50

[2024-05-26 12:02:33.511354] $GPRMC,100924.00,A,3819.20248,N,02638.25655,E,23.299,1.04,260524,,,A*50

[2024-05-26 12:02:34.511739] $GPRMC,100925.00,A,3819.20905,N,02638.25587,E,23.455,355.81,260524,,,A*56

[2024-05-26 12:02:35.514799] $GPRMC,100926.00,A,3819.21544,N,02638.25452,E,23.010,350.47,260524,,,A*5E

[2024-05-26 12:02:36.514300] $GPRMC,100927.00,A,3819.22174,N,02638.25274,E,23.023,346.40,260524,,,A*59

[2024-05-26 12:02:37.509419] $GPRMC,100928.00,A,3819.22788,N,02638.25044,E,22.735,342.55,260524,,,A*53

[2024-05-26 12:02:38.512338] $GPRMC,100929.00,A,3819.23362,N,02638.24759,E,22.238,339.22,260524,,,A*5D

[2024-05-26 12:02:39.510142] $GPRMC,100930.00,A,3819.23931,N,02638.24438,E,22.441,333.62,260524,,,A*5B

[2024-05-26 12:02:40.511713] $GPRMC,100931.00,A,3819.24464,N,02638.24059,E,21.875,329.26,260524,,,A*50

[2024-05-26 12:02:41.508421] $GPRMC,100932.00,A,3819.24974,N,02638.23636,E,21.870,325.70,260524,,,A*5D

[2024-05-26 12:02:42.510159] $GPRMC,100933.00,A,3819.25451,N,02638.23186,E,21.615,322.07,260524,,,A*51

[2024-05-26 12:02:43.509166] $GPRMC,100934.00,A,3819.25872,N,02638.22679,E,21.165,316.87,260524,,,A*52

[2024-05-26 12:02:44.513461] $GPRMC,100935.00,A,3819.26259,N,02638.22155,E,20.544,312.81,260524,,,A*5E

[2024-05-26 12:02:45.514374] $GPRMC,100936.00,A,3819.26618,N,02638.21600,E,20.467,309.45,260524,,,A*5A

[2024-05-26 12:02:46.513049] $GPRMC,100937.00,A,3819.26940,N,02638.21035,E,19.732,305.43,260524,,,A*5A

[2024-05-26 12:02:47.510390] $GPRMC,100938.00,A,3819.27231,N,02638.20450,E,19.787,301.36,260524,,,A*57

[2024-05-26 12:02:48.506874] $GPRMC,100939.00,A,3819.27492,N,02638.19834,E,20.132,297.75,260524,,,A*56

[2024-05-26 12:02:49.510178] $GPRMC,100940.00,A,3819.27722,N,02638.19194,E,20.005,293.17,260524,,,A*56

[2024-05-26 12:02:50.510499] $GPRMC,100941.00,A,3819.27929,N,02638.18534,E,20.121,290.43,260524,,,A*58

[2024-05-26 12:02:51.509198] $GPRMC,100942.00,A,3819.28090,N,02638.17866,E,20.065,286.07,260524,,,A*5C

[2024-05-26 12:02:52.509452] $GPRMC,100943.00,A,3819.28218,N,02638.17193,E,19.766,282.58,260524,,,A*5C

[2024-05-26 12:02:53.509452] $GPRMC,100944.00,A,3819.28318,N,02638.16511,E,19.473,279.95,260524,,,A*57

[2024-05-26 12:02:54.512093] $GPRMC,100945.00,A,3819.28387,N,02638.15835,E,18.783,279.07,260524,,,A*5E

[2024-05-26 12:02:55.514579] $GPRMC,100946.00,A,3819.28477,N,02638.15197,E,18.179,281.19,260524,,,A*5F

[2024-05-26 12:02:56.510117] $GPRMC,100947.00,A,3819.28578,N,02638.14583,E,17.189,280.18,260524,,,A*50

[2024-05-26 12:02:57.511994] $GPRMC,100948.00,A,3819.28667,N,02638.13989,E,17.092,281.32,260524,,,A*51

[2024-05-26 12:02:58.512415] $GPRMC,100949.00,A,3819.28751,N,02638.13381,E,17.812,281.06,260524,,,A*51

[2024-05-26 12:02:59.511778] $GPRMC,100950.00,A,3819.28849,N,02638.12737,E,18.956,280.46,260524,,,A*5C

[2024-05-26 12:03:00.512157] $GPRMC,100951.00,A,3819.28949,N,02638.12050,E,20.084,280.45,260524,,,A*54

[2024-05-26 12:03:01.505944] $GPRMC,100952.00,A,3819.29051,N,02638.11335,E,20.980,279.93,260524,,,A*55

[2024-05-26 12:03:02.508276] $GPRMC,100953.00,A,3819.29154,N,02638.10620,E,20.302,280.05,260524,,,A*59

[2024-05-26 12:03:03.509671] $GPRMC,100954.00,A,3819.29257,N,02638.09912,E,20.322,280.15,260524,,,A*5B

[2024-05-26 12:03:04.508298] $GPRMC,100955.00,A,3819.29355,N,02638.09217,E,19.840,280.07,260524,,,A*51

[2024-05-26 12:03:05.508139] $GPRMC,100956.00,A,3819.29449,N,02638.08557,E,18.559,280.33,260524,,,A*59

[2024-05-26 12:03:06.540325] $GPRMC,100957.00,A,3819.29538,N,02638.07947,E,17.002,280.86,260524,,,A*57

[2024-05-26 12:03:07.516175] $GPRMC,100958.00,A,3819.29615,N,02638.07410,E,14.795,280.87,260524,,,A*50

[2024-05-26 12:03:08.514407] $GPRMC,100959.00,A,3819.29682,N,02638.06954,E,12.595,280.61,260524,,,A*5F

[2024-05-26 12:03:09.512396] $GPRMC,101000.00,A,3819.29697,N,02638.06540,E,11.600,274.75,260524,,,A*54

[2024-05-26 12:03:10.510428] $GPRMC,101001.00,A,3819.29747,N,02638.06119,E,11.974,279.46,260524,,,A*50

[2024-05-26 12:03:11.510304] $GPRMC,101002.00,A,3819.29798,N,02638.05694,E,12.131,278.46,260524,,,A*5B

[2024-05-26 12:03:12.510789] $GPRMC,101003.00,A,3819.29855,N,02638.05245,E,13.258,278.83,260524,,,A*58

[2024-05-26 12:03:13.508761] $GPRMC,101004.00,A,3819.29919,N,02638.04789,E,13.171,279.89,260524,,,A*51

[2024-05-26 12:03:14.510322] $GPRMC,101005.00,A,3819.29977,N,02638.04378,E,11.377,279.72,260524,,,A*50

[2024-05-26 12:03:15.513200] $GPRMC,101006.00,A,3819.30023,N,02638.04009,E,10.292,278.37,260524,,,A*5D

[2024-05-26 12:03:16.513795] $GPRMC,101007.00,A,3819.30079,N,02638.03680,E,8.831,278.92,260524,,,A*66

[2024-05-26 12:03:17.512564] $GPRMC,101008.00,A,3819.30127,N,02638.03338,E,10.118,280.52,260524,,,A*55

[2024-05-26 12:03:18.513413] $GPRMC,101009.00,A,3819.30194,N,02638.02934,E,12.187,280.34,260524,,,A*5F

[2024-05-26 12:03:19.514092] $GPRMC,101010.00,A,3819.30262,N,02638.02467,E,13.839,279.96,260524,,,A*55

[2024-05-26 12:03:20.514491] $GPRMC,101011.00,A,3819.30351,N,02638.01946,E,15.519,280.36,260524,,,A*5D

[2024-05-26 12:03:21.513641] $GPRMC,101012.00,A,3819.30441,N,02638.01371,E,16.937,280.34,260524,,,A*57

[2024-05-26 12:03:22.512721] $GPRMC,101013.00,A,3819.30533,N,02638.00757,E,18.132,280.20,260524,,,A*55

[2024-05-26 12:03:23.512488] $GPRMC,101014.00,A,3819.30631,N,02638.00098,E,19.356,279.90,260524,,,A*5B

[2024-05-26 12:03:24.513289] $GPRMC,101015.00,A,3819.30732,N,02637.99394,E,20.450,280.29,260524,,,A*57

[2024-05-26 12:03:25.518881] $GPRMC,101016.00,A,3819.30846,N,02637.98658,E,21.552,280.91,260524,,,A*5D

[2024-05-26 12:03:26.512818] $GPRMC,101017.00,A,3819.30968,N,02637.97892,E,22.293,280.80,260524,,,A*5F

[2024-05-26 12:03:27.509830] $GPRMC,101018.00,A,3819.31086,N,02637.97129,E,21.982,280.48,260524,,,A*5D

[2024-05-26 12:03:28.514012] $GPRMC,101019.00,A,3819.31202,N,02637.96372,E,21.562,280.20,260524,,,A*53

[2024-05-26 12:03:29.511057] $GPRMC,101020.00,A,3819.31298,N,02637.95625,E,21.337,279.06,260524,,,A*5A

[2024-05-26 12:03:30.509919] $GPRMC,101021.00,A,3819.31399,N,02637.94908,E,20.583,279.69,260524,,,A*5B

[2024-05-26 12:03:31.512857] $GPRMC,101022.00,A,3819.31491,N,02637.94206,E,19.971,280.36,260524,,,A*55

[2024-05-26 12:03:32.513988] $GPRMC,101023.00,A,3819.31587,N,02637.93531,E,19.552,280.05,260524,,,A*5B

[2024-05-26 12:03:33.512936] $GPRMC,101024.00,A,3819.31666,N,02637.92883,E,18.332,278.39,260524,,,A*5C

[2024-05-26 12:03:34.512731] $GPRMC,101025.00,A,3819.31726,N,02637.92285,E,16.731,277.29,260524,,,A*53

[2024-05-26 12:03:35.512118] $GPRMC,101026.00,A,3819.31785,N,02637.91718,E,16.213,278.55,260524,,,A*5A

[2024-05-26 12:03:36.512064] $GPRMC,101027.00,A,3819.31848,N,02637.91198,E,14.644,279.76,260524,,,A*5F

[2024-05-26 12:03:37.512774] $GPRMC,101028.00,A,3819.31915,N,02637.90733,E,12.744,280.30,260524,,,A*5C

[2024-05-26 12:03:38.513192] $GPRMC,101029.00,A,3819.31972,N,02637.90341,E,10.522,280.09,260524,,,A*57

[2024-05-26 12:03:39.509799] $GPRMC,101030.00,A,3819.32029,N,02637.90009,E,9.355,282.52,260524,,,A*66

[2024-05-26 12:03:40.512864] $GPRMC,101031.00,A,3819.32086,N,02637.89678,E,10.495,283.55,260524,,,A*5F

[2024-05-26 12:03:41.514907] $GPRMC,101032.00,A,3819.32164,N,02637.89297,E,11.934,285.49,260524,,,A*58

[2024-05-26 12:03:42.515340] $GPRMC,101033.00,A,3819.32264,N,02637.88881,E,13.226,288.07,260524,,,A*5B

[2024-05-26 12:03:43.512652] $GPRMC,101034.00,A,3819.32399,N,02637.88429,E,13.976,291.36,260524,,,A*55

[2024-05-26 12:03:44.513896] $GPRMC,101035.00,A,3819.32568,N,02637.87949,E,15.360,294.28,260524,,,A*59

[2024-05-26 12:03:45.511086] $GPRMC,101036.00,A,3819.32769,N,02637.87421,E,16.260,298.32,260524,,,A*5F

[2024-05-26 12:03:46.516071] $GPRMC,101037.00,A,3819.33018,N,02637.86935,E,16.691,303.62,260524,,,A*5B

[2024-05-26 12:03:47.512752] $GPRMC,101038.00,A,3819.33316,N,02637.86450,E,17.475,308.43,260524,,,A*56

[2024-05-26 12:03:48.510892] $GPRMC,101039.00,A,3819.33659,N,02637.85974,E,17.700,315.27,260524,,,A*5E

[2024-05-26 12:03:49.509886] $GPRMC,101040.00,A,3819.34034,N,02637.85547,E,18.219,320.96,260524,,,A*58

[2024-05-26 12:03:50.513149] $GPRMC,101041.00,A,3819.34453,N,02637.85160,E,18.718,327.10,260524,,,A*50

[2024-05-26 12:03:51.512310] $GPRMC,101042.00,A,3819.34926,N,02637.84834,E,19.278,333.23,260524,,,A*52

[2024-05-26 12:03:52.513356] $GPRMC,101043.00,A,3819.35426,N,02637.84583,E,19.710,341.08,260524,,,A*59

[2024-05-26 12:03:53.510735] $GPRMC,101044.00,A,3819.35958,N,02637.84414,E,19.970,347.54,260524,,,A*52

[2024-05-26 12:03:54.510392] $GPRMC,101045.00,A,3819.36513,N,02637.84333,E,20.186,355.96,260524,,,A*57

[2024-05-26 12:03:55.516034] $GPRMC,101046.00,A,3819.37086,N,02637.84358,E,20.397,3.60,260524,,,A*5A

[2024-05-26 12:03:56.512988] $GPRMC,101047.00,A,3819.37669,N,02637.84458,E,20.899,8.27,260524,,,A*56

[2024-05-26 12:03:57.509207] $GPRMC,101048.00,A,3819.38266,N,02637.84589,E,21.632,9.69,260524,,,A*55

[2024-05-26 12:03:58.510896] $GPRMC,101049.00,A,3819.38871,N,02637.84732,E,21.882,10.32,260524,,,A*69

[2024-05-26 12:03:59.511385] $GPRMC,101050.00,A,3819.39474,N,02637.84882,E,21.818,10.59,260524,,,A*63

[2024-05-26 12:04:00.513032] $GPRMC,101051.00,A,3819.40068,N,02637.85032,E,21.174,10.50,260524,,,A*6D

[2024-05-26 12:04:01.510923] $GPRMC,101052.00,A,3819.40638,N,02637.85179,E,20.354,10.81,260524,,,A*6E

[2024-05-26 12:04:02.513454] $GPRMC,101053.00,A,3819.41188,N,02637.85323,E,19.603,10.43,260524,,,A*6C

[2024-05-26 12:04:03.511407] $GPRMC,101054.00,A,3819.41712,N,02637.85443,E,18.575,9.57,260524,,,A*51

[2024-05-26 12:04:04.512511] $GPRMC,101055.00,A,3819.42208,N,02637.85537,E,17.428,8.25,260524,,,A*5D

[2024-05-26 12:04:05.510132] $GPRMC,101056.00,A,3819.42667,N,02637.85614,E,16.128,7.27,260524,,,A*58

[2024-05-26 12:04:06.537131] $GPRMC,101057.00,A,3819.43086,N,02637.85683,E,14.570,7.78,260524,,,A*5E

[2024-05-26 12:04:07.416955] $GPRMC,101057.80,V,,,,,,,260524,,,N*70

[2024-05-26 12:04:07.816288] $GPRMC,101058.00,V,,,,,,,260524,,,N*77

[2024-05-26 12:04:08.215685] $GPRMC,101058.50,A,3819.43808,N,02637.85955,E,12.997,7.74,260524,,,A*51

[2024-05-26 12:04:08.781457] $GPRMC,101059.00,A,3819.44027,N,02637.85750,E,12.799,10.01,260524,,,A*68

[2024-05-26 12:04:09.514266] $GPRMC,101100.00,A,3819.44196,N,02637.85845,E,11.821,10.76,260524,,,A*6A

[2024-05-26 12:04:10.514286] $GPRMC,101101.00,A,3819.44491,N,02637.85966,E,10.776,10.02,260524,,,A*66

[2024-05-26 12:04:11.516397] $GPRMC,101102.00,A,3819.44805,N,02637.85982,E,10.471,10.60,260524,,,A*6E

[2024-05-26 12:04:12.516184] $GPRMC,101103.00,A,3819.45154,N,02637.86096,E,11.117,10.21,260524,,,A*6D

[2024-05-26 12:04:13.516194] $GPRMC,101104.00,A,3819.45497,N,02637.86199,E,12.327,10.43,260524,,,A*68

[2024-05-26 12:04:14.514358] $GPRMC,101105.00,A,3819.45854,N,02637.86264,E,12.866,9.80,260524,,,A*52

[2024-05-26 12:04:15.516890] $GPRMC,101106.00,A,3819.46201,N,02637.86318,E,12.540,8.37,260524,,,A*56

[2024-05-26 12:04:16.515899] $GPRMC,101107.00,A,3819.46524,N,02637.86383,E,11.365,8.52,260524,,,A*54

[2024-05-26 12:04:17.514824] $GPRMC,101108.00,A,3819.46815,N,02637.86488,E,10.361,8.86,260524,,,A*54

[2024-05-26 12:04:18.515966] $GPRMC,101109.00,A,3819.47060,N,02637.86571,E,9.028,10.23,260524,,,A*59

[2024-05-26 12:04:19.514459] $GPRMC,101110.00,A,3819.47303,N,02637.86648,E,9.034,10.39,260524,,,A*58

[2024-05-26 12:04:20.515898] $GPRMC,101111.00,A,3819.47559,N,02637.86679,E,9.395,8.32,260524,,,A*68

[2024-05-26 12:04:21.514931] $GPRMC,101112.00,A,3819.47820,N,02637.86707,E,9.828,6.54,260524,,,A*63

[2024-05-26 12:04:22.509661] $GPRMC,101113.00,A,3819.48097,N,02637.86735,E,10.336,4.70,260524,,,A*50

[2024-05-26 12:04:23.516310] $GPRMC,101114.00,A,3819.48399,N,02637.86757,E,10.951,4.58,260524,,,A*5F

[2024-05-26 12:04:24.515567] $GPRMC,101115.00,A,3819.48671,N,02637.86793,E,10.296,3.92,260524,,,A*54

[2024-05-26 12:04:25.519708] $GPRMC,101116.00,A,3819.48939,N,02637.86853,E,10.050,8.14,260524,,,A*5A

[2024-05-26 12:04:26.514530] $GPRMC,101117.00,A,3819.49218,N,02637.86928,E,10.387,11.91,260524,,,A*63

[2024-05-26 12:04:27.512924] $GPRMC,101118.00,A,3819.49496,N,02637.87040,E,10.547,14.71,260524,,,A*6B

[2024-05-26 12:04:28.511994] $GPRMC,101119.00,A,3819.49767,N,02637.87168,E,10.269,17.02,260524,,,A*60

[2024-05-26 12:04:29.514622] $GPRMC,101120.00,A,3819.50038,N,02637.87284,E,10.314,17.70,260524,,,A*60

[2024-05-26 12:04:30.512175] $GPRMC,101121.00,A,3819.50294,N,02637.87392,E,9.485,18.20,260524,,,A*5E

[2024-05-26 12:04:31.513009] $GPRMC,101122.00,A,3819.50526,N,02637.87471,E,8.434,16.02,260524,,,A*5C

[2024-05-26 12:04:32.515098] $GPRMC,101123.00,A,3819.50740,N,02637.87527,E,7.618,13.26,260524,,,A*5D

[2024-05-26 12:04:33.514834] $GPRMC,101124.00,A,3819.50975,N,02637.87543,E,8.422,9.38,260524,,,A*60

[2024-05-26 12:04:34.514731] $GPRMC,101125.00,A,3819.51230,N,02637.87585,E,9.739,9.12,260524,,,A*60

[2024-05-26 12:04:35.810802] $GPRMC,101126.0,V,,,,,,,260524,,,N*78

[2024-05-26 12:04:36.43759] $GPRMC,101126.43,V,,,,,,,260524,,,N*78

[2024-05-26 12:04:36.593451] $GPRMC,101127.00,A,3819.51876,N,02637.87517,E,13.940,9.90,260524,,,A*50

[2024-05-26 12:04:37.511554] $GPRMC,101128.00,A,3819.52245,N,02637.87883,E,14.766,9.16,260524,,,A*55

[2024-05-26 12:04:38.516422] $GPRMC,101129.00,A,3819.52712,N,02637.87896,E,15.789,9.40,260524,,,A*54

