[2024-05-25 20:39:05.496029] $GPRMC,185059.00,A,3820.12298,N,02638.64583,E,0.556,,250524,,,A*78

[2024-05-25 20:39:06.496567] $GPRMC,185100.00,A,3820.12270,N,02638.64593,E,1.584,137.96,250524,,,A*68

[2024-05-25 20:39:07.496127] $GPRMC,185101.00,A,3820.12298,N,02638.64599,E,1.239,153.01,250524,,,A*68

[2024-05-25 20:39:08.495450] $GPRMC,185102.00,A,3820.12334,N,02638.64598,E,0.715,,250524,,,A*7F

[2024-05-25 20:39:09.505543] $GPRMC,185103.00,A,3820.12391,N,02638.64599,E,0.558,157.37,250524,,,A*62

[2024-05-25 20:39:10.496062] $GPRMC,185104.00,A,3820.12411,N,02638.64616,E,1.279,166.83,250524,,,A*66

[2024-05-25 20:39:11.496628] $GPRMC,185105.00,A,3820.12407,N,02638.64638,E,1.080,166.51,250524,,,A*67

[2024-05-25 20:39:12.495936] $GPRMC,185106.00,A,3820.12412,N,02638.64661,E,0.693,,250524,,,A*72

[2024-05-25 20:39:13.496396] $GPRMC,185107.00,A,3820.12418,N,02638.64678,E,0.500,,250524,,,A*78

[2024-05-25 20:39:14.496140] $GPRMC,185108.00,A,3820.12417,N,02638.64678,E,0.535,,250524,,,A*7E

[2024-05-25 20:39:15.498558] $GPRMC,185109.00,A,3820.12428,N,02638.64680,E,0.456,,250524,,,A*70

[2024-05-25 20:39:16.499382] $GPRMC,185107.00,A,3820.12421,N,02638.64681,E,0.673,172.27,250524,,,A*6C

[2024-05-25 20:39:17.497681] $GPRMC,185108.00,A,3820.12391,N,02638.64666,E,1.602,192.19,250524,,,A*62

[2024-05-25 20:39:18.496075] $GPRMC,185109.00,A,3820.12362,N,02638.64641,E,1.653,197.82,250524,,,A*69

[2024-05-25 20:39:19.496355] $GPRMC,185110.00,A,3820.12355,N,02638.64626,E,0.902,201.11,250524,,,A*68

[2024-05-25 20:39:20.497471] $GPRMC,185111.00,A,3820.12362,N,02638.64616,E,0.551,,250524,,,A*79

[2024-05-25 20:39:21.499103] $GPRMC,185112.00,A,3820.12390,N,02638.64619,E,0.107,,250524,,,A*7F

[2024-05-25 20:39:22.502472] $GPRMC,185113.00,A,3820.12423,N,02638.64626,E,0.111,,250524,,,A*7A

[2024-05-25 20:39:23.497470] $GPRMC,185114.00,A,3820.12479,N,02638.64658,E,0.520,,250524,,,A*7D

[2024-05-25 20:39:24.496619] $GPRMC,185115.00,A,3820.12541,N,02638.64717,E,1.400,153.01,250524,,,A*66

[2024-05-25 20:39:25.498974] $GPRMC,185116.00,A,3820.12576,N,02638.64821,E,3.047,112.17,250524,,,A*6C

[2024-05-25 20:39:26.495460] $GPRMC,185117.00,A,3820.12584,N,02638.64984,E,5.012,101.88,250524,,,A*6C

[2024-05-25 20:39:27.494384] $GPRMC,185118.00,A,3820.12591,N,02638.65220,E,6.854,96.37,250524,,,A*51

[2024-05-25 20:39:28.497115] $GPRMC,185119.00,A,3820.12582,N,02638.65475,E,7.279,96.18,250524,,,A*5D

[2024-05-25 20:39:29.496672] $GPRMC,185120.00,A,3820.12570,N,02638.65724,E,7.063,93.03,250524,,,A*5B

[2024-05-25 20:39:30.496274] $GPRMC,185121.00,A,3820.12576,N,02638.65934,E,5.638,90.71,250524,,,A*5F

[2024-05-25 20:39:31.496316] $GPRMC,185122.00,A,3820.12593,N,02638.66094,E,3.981,89.30,250524,,,A*51

[2024-05-25 20:39:32.495689] $GPRMC,185123.00,A,3820.12601,N,02638.66203,E,2.675,88.36,250524,,,A*56

[2024-05-25 20:39:33.497421] $GPRMC,185124.00,A,3820.12608,N,02638.66276,E,1.928,89.23,250524,,,A*5B

[2024-05-25 20:39:34.493739] $GPRMC,185125.00,A,3820.12606,N,02638.66343,E,1.963,95.32,250524,,,A*51

[2024-05-25 20:39:35.495711] $GPRMC,185126.00,A,3820.12574,N,02638.66430,E,3.166,114.55,250524,,,A*61

[2024-05-25 20:39:36.495493] $GPRMC,185127.00,A,3820.12466,N,02638.66509,E,4.820,142.83,250524,,,A*6D

[2024-05-25 20:39:37.503457] $GPRMC,185128.00,A,3820.12268,N,02638.66561,E,6.977,158.66,250524,,,A*65

[2024-05-25 20:39:38.501791] $GPRMC,185129.00,A,3820.12044,N,02638.66647,E,8.784,160.92,250524,,,A*63

[2024-05-25 20:39:39.501863] $GPRMC,185130.00,A,3820.11781,N,02638.66749,E,10.286,162.93,250524,,,A*54

[2024-05-25 20:39:40.499122] $GPRMC,185131.00,A,3820.11460,N,02638.66855,E,12.260,164.47,250524,,,A*5E

[2024-05-25 20:39:41.497812] $GPRMC,185132.00,A,3820.11095,N,02638.66974,E,13.943,164.62,250524,,,A*5D

[2024-05-25 20:39:42.498021] $GPRMC,185133.00,A,3820.10705,N,02638.67119,E,14.965,163.29,250524,,,A*5A

[2024-05-25 20:39:43.495898] $GPRMC,185134.00,A,3820.10293,N,02638.67288,E,15.871,161.95,250524,,,A*5C

[2024-05-25 20:39:44.495725] $GPRMC,185135.00,A,3820.09856,N,02638.67469,E,16.943,162.47,250524,,,A*50

[2024-05-25 20:39:45.496873] $GPRMC,185136.00,A,3820.09400,N,02638.67658,E,17.651,162.22,250524,,,A*52

[2024-05-25 20:39:46.496000] $GPRMC,185137.00,A,3820.08937,N,02638.67860,E,17.824,161.06,250524,,,A*57

[2024-05-25 20:39:47.496672] $GPRMC,185138.00,A,3820.08463,N,02638.68073,E,18.247,160.72,250524,,,A*53

[2024-05-25 20:39:48.495939] $GPRMC,185139.00,A,3820.07978,N,02638.68286,E,18.753,161.37,250524,,,A*52

[2024-05-25 20:39:49.496523] $GPRMC,185140.00,A,3820.07488,N,02638.68500,E,18.686,161.49,250524,,,A*57

[2024-05-25 20:39:50.496909] $GPRMC,185141.00,A,3820.07008,N,02638.68703,E,17.809,161.36,250524,,,A*55

[2024-05-25 20:39:51.499149] $GPRMC,185142.00,A,3820.06594,N,02638.68873,E,14.793,162.54,250524,,,A*57

[2024-05-25 20:39:52.503883] $GPRMC,185143.00,A,3820.06273,N,02638.68995,E,11.125,164.14,250524,,,A*5D

[2024-05-25 20:39:53.503031] $GPRMC,185144.00,A,3820.06063,N,02638.69074,E,7.025,165.11,250524,,,A*6C

[2024-05-25 20:39:54.499899] $GPRMC,185145.00,A,3820.05922,N,02638.69121,E,4.447,164.68,250524,,,A*6F

[2024-05-25 20:39:55.499574] $GPRMC,185146.00,A,3820.05833,N,02638.69145,E,2.489,164.60,250524,,,A*63

[2024-05-25 20:39:56.498210] $GPRMC,185147.00,A,3820.05788,N,02638.69156,E,1.156,164.60,250524,,,A*6B

[2024-05-25 20:39:57.498322] $GPRMC,185148.00,A,3820.05764,N,02638.69161,E,0.567,,250524,,,A*7E

[2024-05-25 20:39:58.497292] $GPRMC,185149.00,A,3820.05732,N,02638.69167,E,1.103,163.29,250524,,,A*6C

[2024-05-25 20:39:59.502716] $GPRMC,185150.00,A,3820.05693,N,02638.69175,E,1.402,162.58,250524,,,A*6E

[2024-05-25 20:40:00.502246] $GPRMC,185151.00,A,3820.05641,N,02638.69181,E,1.559,162.06,250524,,,A*6F

[2024-05-25 20:40:01.498197] $GPRMC,185152.00,A,3820.05592,N,02638.69198,E,1.653,160.27,250524,,,A*61

[2024-05-25 20:40:02.497780] $GPRMC,185153.00,A,3820.05526,N,02638.69223,E,2.369,155.56,250524,,,A*63

[2024-05-25 20:40:03.502777] $GPRMC,185154.00,A,3820.05393,N,02638.69277,E,5.455,158.84,250524,,,A*60

[2024-05-25 20:40:04.502914] $GPRMC,185155.00,A,3820.05219,N,02638.69359,E,6.996,159.17,250524,,,A*65

[2024-05-25 20:40:05.499814] $GPRMC,185156.00,A,3820.05011,N,02638.69462,E,8.409,159.12,250524,,,A*63

[2024-05-25 20:40:06.495771] $GPRMC,185157.00,A,3820.04760,N,02638.69584,E,10.096,159.61,250524,,,A*54

[2024-05-25 20:40:07.498210] $GPRMC,185158.00,A,3820.04464,N,02638.69715,E,11.676,161.19,250524,,,A*5B

[2024-05-25 20:40:08.498259] $GPRMC,185159.00,A,3820.04139,N,02638.69852,E,12.634,161.87,250524,,,A*59

[2024-05-25 20:40:09.509784] $GPRMC,185200.00,A,3820.03780,N,02638.69974,E,13.490,165.09,250524,,,A*5F

[2024-05-25 20:40:10.496025] $GPRMC,185201.00,A,3820.03400,N,02638.70080,E,14.168,167.52,250524,,,A*56

[2024-05-25 20:40:11.498125] $GPRMC,185202.00,A,3820.03019,N,02638.70161,E,13.709,169.62,250524,,,A*5C

[2024-05-25 20:40:12.499638] $GPRMC,185203.00,A,3820.02649,N,02638.70216,E,13.242,172.88,250524,,,A*58

[2024-05-25 20:40:13.500138] $GPRMC,185204.00,A,3820.02286,N,02638.70253,E,13.138,175.23,250524,,,A*51

[2024-05-25 20:40:14.492881] $GPRMC,185205.00,A,3820.01920,N,02638.70223,E,13.184,182.73,250524,,,A*59

[2024-05-25 20:40:15.492534] $GPRMC,185206.00,A,3820.01597,N,02638.70109,E,12.727,193.88,250524,,,A*5B

[2024-05-25 20:40:16.497968] $GPRMC,185207.00,A,3820.01220,N,02638.69883,E,14.557,206.91,250524,,,A*56

[2024-05-25 20:40:17.500354] $GPRMC,185208.00,A,3820.00877,N,02638.69583,E,15.548,214.52,250524,,,A*5E

[2024-05-25 20:40:18.502435] $GPRMC,185209.00,A,3820.00566,N,02638.69234,E,15.799,221.09,250524,,,A*5F

[2024-05-25 20:40:19.502985] $GPRMC,185210.00,A,3820.00211,N,02638.68842,E,17.186,221.34,250524,,,A*5E

[2024-05-25 20:40:20.501204] $GPRMC,185211.00,A,3819.99784,N,02638.68461,E,19.788,215.51,250524,,,A*53

[2024-05-25 20:40:21.503386] $GPRMC,185212.00,A,3819.99303,N,02638.68042,E,20.526,216.97,250524,,,A*5B

[2024-05-25 20:40:22.504984] $GPRMC,185213.00,A,3819.98828,N,02638.67628,E,21.105,216.28,250524,,,A*5C

[2024-05-25 20:40:23.501413] $GPRMC,185214.00,A,3819.98326,N,02638.67218,E,21.617,214.06,250524,,,A*53

[2024-05-25 20:40:24.498376] $GPRMC,185215.00,A,3819.97862,N,02638.66803,E,21.249,212.97,250524,,,A*56

[2024-05-25 20:40:25.499897] $GPRMC,185216.00,A,3819.97557,N,02638.66358,E,18.063,221.33,250524,,,A*55

[2024-05-25 20:40:26.498127] $GPRMC,185217.00,A,3819.97189,N,02638.65950,E,17.638,221.13,250524,,,A*57

[2024-05-25 20:40:27.496979] $GPRMC,185218.00,A,3819.96803,N,02638.65556,E,17.967,217.55,250524,,,A*5A

[2024-05-25 20:40:28.498055] $GPRMC,185219.00,A,3819.96429,N,02638.65177,E,17.814,216.01,250524,,,A*5D

[2024-05-25 20:40:29.495382] $GPRMC,185220.00,A,3819.96067,N,02638.64801,E,16.475,221.62,250524,,,A*5B

[2024-05-25 20:40:30.495402] $GPRMC,185221.00,A,3819.95734,N,02638.64422,E,15.829,223.07,250524,,,A*52

[2024-05-25 20:40:31.498353] $GPRMC,185222.00,A,3819.95522,N,02638.64025,E,15.393,221.50,250524,,,A*5D

[2024-05-25 20:40:32.498109] $GPRMC,185223.00,A,3819.95288,N,02638.63661,E,14.728,220.11,250524,,,A*5B

[2024-05-25 20:40:33.501744] $GPRMC,185224.00,A,3819.95121,N,02638.63370,E,9.802,223.80,250524,,,A*69

[2024-05-25 20:40:34.512384] $GPRMC,185225.00,A,3819.95078,N,02638.63134,E,7.115,227.71,250524,,,A*6C

[2024-05-25 20:40:35.503115] $GPRMC,185226.00,A,3819.95054,N,02638.62941,E,5.683,230.46,250524,,,A*62

[2024-05-25 20:40:36.502500] $GPRMC,185227.00,A,3819.95064,N,02638.62802,E,4.489,226.25,250524,,,A*6D

[2024-05-25 20:40:37.505369] $GPRMC,185228.00,A,3819.94961,N,02638.62685,E,5.036,222.81,250524,,,A*65

[2024-05-25 20:40:38.502640] $GPRMC,185229.00,A,3819.94900,N,02638.62611,E,3.762,217.29,250524,,,A*6A

[2024-05-25 20:40:39.501803] $GPRMC,185230.00,A,3819.94833,N,02638.62475,E,5.036,227.63,250524,,,A*6E

[2024-05-25 20:40:40.503145] $GPRMC,185231.00,A,3819.94735,N,02638.62328,E,6.362,224.51,250524,,,A*6A

[2024-05-25 20:40:41.501431] $GPRMC,185232.00,A,3819.94623,N,02638.62147,E,6.692,223.44,250524,,,A*6D

[2024-05-25 20:40:42.504704] $GPRMC,185233.00,A,3819.94431,N,02638.61916,E,9.163,224.73,250524,,,A*67

[2024-05-25 20:40:43.505284] $GPRMC,185234.00,A,3819.94252,N,02638.61656,E,10.235,226.38,250524,,,A*5D

[2024-05-25 20:40:44.500895] $GPRMC,185235.00,A,3819.94040,N,02638.61405,E,9.910,223.97,250524,,,A*6D

[2024-05-25 20:40:45.502410] $GPRMC,185236.00,A,3819.93816,N,02638.61120,E,9.932,226.41,250524,,,A*6E

[2024-05-25 20:40:46.509879] $GPRMC,185237.00,A,3819.93602,N,02638.60854,E,9.507,226.14,250524,,,A*65

[2024-05-25 20:40:47.505990] $GPRMC,185238.00,A,3819.93406,N,02638.60623,E,8.068,227.32,250524,,,A*6A

[2024-05-25 20:40:48.503388] $GPRMC,185239.00,A,3819.93239,N,02638.60408,E,7.641,226.89,250524,,,A*69

[2024-05-25 20:40:49.504196] $GPRMC,185240.00,A,3819.93072,N,02638.60197,E,8.130,225.37,250524,,,A*61

[2024-05-25 20:40:50.502420] $GPRMC,185241.00,A,3819.92853,N,02638.59965,E,9.853,223.96,250524,,,A*65

[2024-05-25 20:40:51.507926] $GPRMC,185242.00,A,3819.92578,N,02638.59670,E,11.711,226.97,250524,,,A*5D

[2024-05-25 20:40:52.510576] $GPRMC,185243.00,A,3819.92296,N,02638.59337,E,13.587,224.58,250524,,,A*53

[2024-05-25 20:40:53.497796] $GPRMC,185244.00,A,3819.92008,N,02638.58976,E,14.603,224.67,250524,,,A*5B

[2024-05-25 20:40:54.500314] $GPRMC,185245.00,A,3819.91697,N,02638.58627,E,14.285,222.28,250524,,,A*55

[2024-05-25 20:40:55.505066] $GPRMC,185246.00,A,3819.91393,N,02638.58270,E,14.528,222.95,250524,,,A*57

[2024-05-25 20:40:56.506989] $GPRMC,185247.00,A,3819.91087,N,02638.57924,E,14.100,221.70,250524,,,A*53

[2024-05-25 20:40:57.503742] $GPRMC,185248.00,A,3819.90857,N,02638.57638,E,11.312,220.74,250524,,,A*5B

[2024-05-25 20:40:58.503003] $GPRMC,185249.00,A,3819.90664,N,02638.57439,E,7.974,214.30,250524,,,A*6D

[2024-05-25 20:40:59.500252] $GPRMC,185250.00,A,3819.90422,N,02638.57373,E,7.614,192.68,250524,,,A*65

[2024-05-25 20:41:00.505653] $GPRMC,185251.00,A,3819.90203,N,02638.57481,E,7.445,159.89,250524,,,A*65

[2024-05-25 20:41:01.509079] $GPRMC,185252.00,A,3819.90105,N,02638.57703,E,7.174,133.98,250524,,,A*61

[2024-05-25 20:41:02.498902] $GPRMC,185253.00,A,3819.90087,N,02638.57965,E,7.415,95.08,250524,,,A*53

[2024-05-25 20:41:03.501162] $GPRMC,185254.00,A,3819.90138,N,02638.58242,E,8.399,81.55,250524,,,A*51

[2024-05-25 20:41:04.504788] $GPRMC,185255.00,A,3819.90214,N,02638.58550,E,9.587,73.34,250524,,,A*5B

[2024-05-25 20:41:05.505046] $GPRMC,185256.00,A,3819.90303,N,02638.58906,E,11.241,72.63,250524,,,A*67

[2024-05-25 20:41:06.504083] $GPRMC,185257.00,A,3819.90398,N,02638.59302,E,12.319,72.10,250524,,,A*60

[2024-05-25 20:41:07.501580] $GPRMC,185258.00,A,3819.90512,N,02638.59735,E,13.489,71.34,250524,,,A*61

[2024-05-25 20:41:08.502115] $GPRMC,185259.00,A,3819.90629,N,02638.60189,E,13.812,71.80,250524,,,A*61

[2024-05-25 20:41:09.513898] $GPRMC,185300.00,A,3819.90731,N,02638.60639,E,13.705,71.43,250524,,,A*6E

[2024-05-25 20:41:10.500486] $GPRMC,185301.00,A,3819.90831,N,02638.61093,E,13.643,72.83,250524,,,A*6B

[2024-05-25 20:41:11.502238] $GPRMC,185302.00,A,3819.90883,N,02638.61530,E,12.921,77.99,250524,,,A*69

[2024-05-25 20:41:12.501699] $GPRMC,185303.00,A,3819.90937,N,02638.61937,E,11.246,79.74,250524,,,A*69

[2024-05-25 20:41:13.507211] $GPRMC,185304.00,A,3819.90967,N,02638.62305,E,10.619,81.85,250524,,,A*65

[2024-05-25 20:41:14.505852] $GPRMC,185305.00,A,3819.91007,N,02638.62651,E,9.615,82.50,250524,,,A*51

[2024-05-25 20:41:15.503012] $GPRMC,185306.00,A,3819.91021,N,02638.62966,E,8.526,85.44,250524,,,A*5D

[2024-05-25 20:41:16.499049] $GPRMC,185307.00,A,3819.91026,N,02638.63283,E,8.712,87.53,250524,,,A*5B

[2024-05-25 20:41:17.504036] $GPRMC,185308.00,A,3819.91054,N,02638.63604,E,9.295,80.18,250524,,,A*59

[2024-05-25 20:41:18.505187] $GPRMC,185309.00,A,3819.91107,N,02638.63942,E,9.831,78.50,250524,,,A*5D

[2024-05-25 20:41:19.505442] $GPRMC,185310.00,A,3819.91128,N,02638.64266,E,9.049,80.75,250524,,,A*55

[2024-05-25 20:41:20.505263] $GPRMC,185311.00,A,3819.91136,N,02638.64570,E,7.857,90.00,250524,,,A*51

[2024-05-25 20:41:21.507449] $GPRMC,185312.00,A,3819.91057,N,02638.64826,E,7.554,98.86,250524,,,A*52

[2024-05-25 20:41:22.514051] $GPRMC,185313.00,A,3819.90828,N,02638.65016,E,9.785,128.76,250524,,,A*6D

[2024-05-25 20:41:23.506522] $GPRMC,185314.00,A,3819.90557,N,02638.65212,E,11.538,144.61,250524,,,A*58

[2024-05-25 20:41:24.504282] $GPRMC,185315.00,A,3819.90365,N,02638.65464,E,10.020,140.10,250524,,,A*56

[2024-05-25 20:41:25.500307] $GPRMC,185316.00,A,3819.90225,N,02638.65751,E,9.427,133.84,250524,,,A*67

[2024-05-25 20:41:26.501350] $GPRMC,185317.00,A,3819.90129,N,02638.66002,E,6.885,118.72,250524,,,A*60

[2024-05-25 20:41:27.503346] $GPRMC,185318.00,A,3819.90046,N,02638.66208,E,5.762,114.07,250524,,,A*64

[2024-05-25 20:41:28.502449] $GPRMC,185319.00,A,3819.90027,N,02638.66436,E,6.189,102.12,250524,,,A*6A

[2024-05-25 20:41:29.502568] $GPRMC,185320.00,A,3819.90053,N,02638.66665,E,6.283,89.77,250524,,,A*5F

[2024-05-25 20:41:30.506591] $GPRMC,185321.00,A,3819.90105,N,02638.66878,E,6.185,78.56,250524,,,A*56

[2024-05-25 20:41:31.506442] $GPRMC,185322.00,A,3819.90124,N,02638.67041,E,4.778,78.29,250524,,,A*5B

[2024-05-25 20:41:32.503051] $GPRMC,185323.00,A,3819.90231,N,02638.67208,E,5.234,60.38,250524,,,A*57

[2024-05-25 20:41:33.503261] $GPRMC,185324.00,A,3819.90358,N,02638.67406,E,6.349,56.42,250524,,,A*56

[2024-05-25 20:41:34.508530] $GPRMC,185325.00,A,3819.90481,N,02638.67650,E,8.317,57.25,250524,,,A*50

[2024-05-25 20:41:35.503884] $GPRMC,185326.00,A,3819.90627,N,02638.67934,E,9.907,56.07,250524,,,A*5B

[2024-05-25 20:41:36.504181] $GPRMC,185327.00,A,3819.90791,N,02638.68240,E,10.597,55.10,250524,,,A*69

[2024-05-25 20:41:37.501542] $GPRMC,185328.00,A,3819.90976,N,02638.68564,E,10.727,53.91,250524,,,A*66

[2024-05-25 20:41:38.501299] $GPRMC,185329.00,A,3819.91161,N,02638.68882,E,10.918,54.12,250524,,,A*63

[2024-05-25 20:41:39.499384] $GPRMC,185330.00,A,3819.91332,N,02638.69193,E,10.484,56.58,250524,,,A*63

[2024-05-25 20:41:40.502252] $GPRMC,185331.00,A,3819.91482,N,02638.69489,E,9.520,57.81,250524,,,A*52

[2024-05-25 20:41:41.502597] $GPRMC,185332.00,A,3819.91561,N,02638.69767,E,7.751,64.32,250524,,,A*5C

[2024-05-25 20:41:42.502401] $GPRMC,185333.00,A,3819.91675,N,02638.69979,E,6.522,63.51,250524,,,A*5F

[2024-05-25 20:41:43.496637] $GPRMC,185334.00,A,3819.91774,N,02638.70176,E,6.260,58.11,250524,,,A*5A

[2024-05-25 20:41:44.498405] $GPRMC,185335.00,A,3819.91838,N,02638.70293,E,4.669,51.72,250524,,,A*57

[2024-05-25 20:41:45.499302] $GPRMC,185336.00,A,3819.91961,N,02638.70436,E,4.704,48.22,250524,,,A*57

[2024-05-25 20:41:46.503803] $GPRMC,185337.00,A,3819.92061,N,02638.70619,E,6.369,50.68,250524,,,A*59

[2024-05-25 20:41:47.503297] $GPRMC,185338.00,A,3819.92206,N,02638.70826,E,7.653,52.19,250524,,,A*5E

[2024-05-25 20:41:48.506443] $GPRMC,185339.00,A,3819.92382,N,02638.71065,E,8.682,52.24,250524,,,A*51

[2024-05-25 20:41:49.499820] $GPRMC,185340.00,A,3819.92561,N,02638.71301,E,8.707,49.58,250524,,,A*58

[2024-05-25 20:41:50.502662] $GPRMC,185341.00,A,3819.92669,N,02638.71466,E,5.049,49.98,250524,,,A*58

[2024-05-25 20:41:51.499633] $GPRMC,185342.00,A,3819.92819,N,02638.71646,E,5.905,48.87,250524,,,A*5C

[2024-05-25 20:41:52.505658] $GPRMC,185343.00,A,3819.92941,N,02638.71797,E,4.751,44.87,250524,,,A*5E

[2024-05-25 20:41:53.505632] $GPRMC,185344.00,A,3819.93008,N,02638.71933,E,3.925,47.79,250524,,,A*54

[2024-05-25 20:41:54.499170] $GPRMC,185345.00,A,3819.93072,N,02638.72037,E,2.690,56.83,250524,,,A*53

[2024-05-25 20:41:55.501793] $GPRMC,185346.00,A,3819.93109,N,02638.72122,E,1.823,55.53,250524,,,A*53

[2024-05-25 20:41:56.504473] $GPRMC,185347.00,A,3819.93133,N,02638.72245,E,2.935,,250524,,,A*74

[2024-05-25 20:41:57.507938] $GPRMC,185348.00,A,3819.93111,N,02638.72350,E,2.340,,250524,,,A*76

[2024-05-25 20:41:58.503383] $GPRMC,185349.00,A,3819.93118,N,02638.72434,E,2.405,,250524,,,A*7D

[2024-05-25 20:41:59.501818] $GPRMC,185350.00,A,3819.93096,N,02638.72592,E,4.446,,250524,,,A*7E

[2024-05-25 20:42:00.503866] $GPRMC,185351.00,A,3819.92906,N,02638.72834,E,7.153,98.84,250524,,,A*5E

[2024-05-25 20:42:01.505334] $GPRMC,185352.00,A,3819.92699,N,02638.73102,E,8.507,120.75,250524,,,A*6F

[2024-05-25 20:42:02.504954] $GPRMC,185353.00,A,3819.92466,N,02638.73345,E,9.387,128.20,250524,,,A*6A

[2024-05-25 20:42:03.504522] $GPRMC,185354.00,A,3819.92268,N,02638.73632,E,10.422,129.42,250524,,,A*55

[2024-05-25 20:42:04.502996] $GPRMC,185355.00,A,3819.91989,N,02638.73850,E,9.744,134.71,250524,,,A*6E

[2024-05-25 20:42:05.506573] $GPRMC,185356.00,A,3819.91854,N,02638.74085,E,7.827,133.53,250524,,,A*68

[2024-05-25 20:42:06.506013] $GPRMC,185357.00,A,3819.91727,N,02638.74276,E,6.343,130.53,250524,,,A*67

[2024-05-25 20:42:07.503473] $GPRMC,185358.00,A,3819.91535,N,02638.74483,E,7.497,134.54,250524,,,A*69

[2024-05-25 20:42:08.502981] $GPRMC,185359.00,A,3819.91271,N,02638.74718,E,9.530,138.96,250524,,,A*6E

[2024-05-25 20:42:09.518426] $GPRMC,185400.00,A,3819.91116,N,02638.75025,E,10.140,132.98,250524,,,A*50

[2024-05-25 20:42:10.506524] $GPRMC,185401.00,A,3819.91024,N,02638.75382,E,10.505,121.95,250524,,,A*55

[2024-05-25 20:42:11.506737] $GPRMC,185402.00,A,3819.90969,N,02638.75791,E,11.478,109.67,250524,,,A*5C

[2024-05-25 20:42:12.499724] $GPRMC,185403.00,A,3819.90838,N,02638.76196,E,12.316,110.16,250524,,,A*58

[2024-05-25 20:42:13.502771] $GPRMC,185404.00,A,3819.90730,N,02638.76632,E,12.792,112.12,250524,,,A*5F

[2024-05-25 20:42:14.499549] $GPRMC,185405.00,A,3819.90600,N,02638.77074,E,13.107,111.06,250524,,,A*54

[2024-05-25 20:42:15.501585] $GPRMC,185406.00,A,3819.90480,N,02638.77520,E,13.017,109.87,250524,,,A*59

[2024-05-25 20:42:16.501316] $GPRMC,185407.00,A,3819.90323,N,02638.77944,E,12.462,114.40,250524,,,A*58

[2024-05-25 20:42:17.501565] $GPRMC,185408.00,A,3819.90183,N,02638.78370,E,12.954,114.45,250524,,,A*50

[2024-05-25 20:42:18.507057] $GPRMC,185409.00,A,3819.90057,N,02638.78804,E,13.090,112.82,250524,,,A*5C

[2024-05-25 20:42:19.506969] $GPRMC,185410.00,A,3819.89914,N,02638.79244,E,13.267,111.39,250524,,,A*54

[2024-05-25 20:42:20.502566] $GPRMC,185411.00,A,3819.89765,N,02638.79697,E,13.892,112.86,250524,,,A*50

[2024-05-25 20:42:21.503976] $GPRMC,185412.00,A,3819.89602,N,02638.80154,E,14.154,113.04,250524,,,A*52

[2024-05-25 20:42:22.513819] $GPRMC,185413.00,A,3819.89447,N,02638.80626,E,14.550,112.49,250524,,,A*5A

[2024-05-25 20:42:23.503903] $GPRMC,185414.00,A,3819.89277,N,02638.81099,E,14.673,114.73,250524,,,A*56

[2024-05-25 20:42:24.503568] $GPRMC,185415.00,A,3819.89105,N,02638.81572,E,14.727,115.32,250524,,,A*55

[2024-05-25 20:42:25.502780] $GPRMC,185416.00,A,3819.88938,N,02638.82035,E,14.286,113.91,250524,,,A*55

[2024-05-25 20:42:26.501615] $GPRMC,185417.00,A,3819.88797,N,02638.82490,E,13.632,110.71,250524,,,A*55

[2024-05-25 20:42:27.503197] $GPRMC,185418.00,A,3819.88693,N,02638.82942,E,13.220,105.91,250524,,,A*50

[2024-05-25 20:42:28.506103] $GPRMC,185419.00,A,3819.88621,N,02638.83382,E,12.423,103.21,250524,,,A*56

[2024-05-25 20:42:29.504897] $GPRMC,185420.00,A,3819.88563,N,02638.83806,E,11.889,101.92,250524,,,A*5B

[2024-05-25 20:42:30.506175] $GPRMC,185421.00,A,3819.88494,N,02638.84203,E,11.215,104.42,250524,,,A*5C

[2024-05-25 20:42:31.505392] $GPRMC,185422.00,A,3819.88414,N,02638.84558,E,10.161,106.75,250524,,,A*59

[2024-05-25 20:42:32.504088] $GPRMC,185423.00,A,3819.88351,N,02638.84879,E,9.178,105.10,250524,,,A*60

[2024-05-25 20:42:33.502818] $GPRMC,185424.00,A,3819.88304,N,02638.85181,E,8.520,103.47,250524,,,A*64

[2024-05-25 20:42:34.506786] $GPRMC,185425.00,A,3819.88253,N,02638.85520,E,9.489,103.20,250524,,,A*6B

[2024-05-25 20:42:35.506293] $GPRMC,185426.00,A,3819.88191,N,02638.85865,E,10.169,103.82,250524,,,A*52

[2024-05-25 20:42:36.508180] $GPRMC,185427.00,A,3819.88133,N,02638.86244,E,11.102,101.25,250524,,,A*52

[2024-05-25 20:42:37.508156] $GPRMC,185428.00,A,3819.88093,N,02638.86659,E,12.018,98.20,250524,,,A*63

[2024-05-25 20:42:38.504975] $GPRMC,185429.00,A,3819.88067,N,02638.87130,E,13.574,95.05,250524,,,A*64

[2024-05-25 20:42:39.507069] $GPRMC,185430.00,A,3819.88070,N,02638.87646,E,14.751,90.74,250524,,,A*6D

[2024-05-25 20:42:40.506297] $GPRMC,185431.00,A,3819.88101,N,02638.88161,E,14.253,86.67,250524,,,A*64

[2024-05-25 20:42:41.504452] $GPRMC,185432.00,A,3819.88160,N,02638.88654,E,13.664,82.20,250524,,,A*61

[2024-05-25 20:42:42.502243] $GPRMC,185433.00,A,3819.88248,N,02638.89145,E,14.303,77.80,250524,,,A*6C

[2024-05-25 20:42:43.500133] $GPRMC,185434.00,A,3819.88345,N,02638.89650,E,14.848,77.26,250524,,,A*6C

[2024-05-25 20:42:44.503594] $GPRMC,185435.00,A,3819.88424,N,02638.90178,E,15.170,80.44,250524,,,A*67

[2024-05-25 20:42:45.504504] $GPRMC,185436.00,A,3819.88494,N,02638.90730,E,15.877,81.78,250524,,,A*65

[2024-05-25 20:42:46.505262] $GPRMC,185437.00,A,3819.88544,N,02638.91298,E,16.091,85.46,250524,,,A*64

[2024-05-25 20:42:47.505393] $GPRMC,185438.00,A,3819.88583,N,02638.91858,E,15.660,85.99,250524,,,A*6F

[2024-05-25 20:42:48.508470] $GPRMC,185439.00,A,3819.88603,N,02638.92396,E,14.861,88.78,250524,,,A*63

[2024-05-25 20:42:49.504928] $GPRMC,185440.00,A,3819.88607,N,02638.92908,E,14.275,91.42,250524,,,A*6A

[2024-05-25 20:42:50.504529] $GPRMC,185441.00,A,3819.88602,N,02638.93395,E,13.536,91.96,250524,,,A*6F

[2024-05-25 20:42:51.502488] $GPRMC,185442.00,A,3819.88584,N,02638.93859,E,12.781,94.98,250524,,,A*6E

[2024-05-25 20:42:52.503359] $GPRMC,185443.00,A,3819.88506,N,02638.94286,E,12.224,100.89,250524,,,A*5C

[2024-05-25 20:42:53.504419] $GPRMC,185444.00,A,3819.88321,N,02638.94614,E,11.209,125.81,250524,,,A*54

[2024-05-25 20:42:54.502517] $GPRMC,185445.00,A,3819.88108,N,02638.94835,E,9.324,135.60,250524,,,A*68

[2024-05-25 20:42:55.503765] $GPRMC,185446.00,A,3819.87879,N,02638.95025,E,10.584,142.64,250524,,,A*53

[2024-05-25 20:42:56.504213] $GPRMC,185447.00,A,3819.87597,N,02638.95208,E,11.147,149.73,250524,,,A*55

[2024-05-25 20:42:57.505750] $GPRMC,185448.00,A,3819.87298,N,02638.95376,E,11.448,153.99,250524,,,A*5F

[2024-05-25 20:42:58.504072] $GPRMC,185449.00,A,3819.87048,N,02638.95573,E,10.379,148.50,250524,,,A*59

[2024-05-25 20:42:59.502456] $GPRMC,185450.00,A,3819.86805,N,02638.95788,E,10.144,145.36,250524,,,A*56

[2024-05-25 20:43:00.502046] $GPRMC,185451.00,A,3819.86752,N,02638.96060,E,8.266,113.03,250524,,,A*67

[2024-05-25 20:43:01.505468] $GPRMC,185452.00,A,3819.86722,N,02638.96387,E,9.842,92.25,250524,,,A*58

[2024-05-25 20:43:02.509255] $GPRMC,185453.00,A,3819.86768,N,02638.96762,E,11.107,81.83,250524,,,A*67

[2024-05-25 20:43:03.503870] $GPRMC,185454.00,A,3819.86829,N,02638.97193,E,12.893,79.96,250524,,,A*67

[2024-05-25 20:43:04.505658] $GPRMC,185455.00,A,3819.86893,N,02638.97671,E,13.795,82.22,250524,,,A*6F

[2024-05-25 20:43:05.505444] $GPRMC,185456.00,A,3819.86920,N,02638.98151,E,13.590,85.76,250524,,,A*6E

[2024-05-25 20:43:06.504192] $GPRMC,185457.00,A,3819.86923,N,02638.98626,E,13.298,89.71,250524,,,A*6F

[2024-05-25 20:43:07.501718] $GPRMC,185458.00,A,3819.86904,N,02638.99081,E,12.687,91.95,250524,,,A*67

[2024-05-25 20:43:08.510967] $GPRMC,185459.00,A,3819.86854,N,02638.99527,E,12.450,98.13,250524,,,A*64

[2024-05-25 20:43:09.513894] $GPRMC,185500.00,A,3819.86810,N,02638.99991,E,13.256,96.09,250524,,,A*6C

[2024-05-25 20:43:10.502926] $GPRMC,185501.00,A,3819.86785,N,02639.00479,E,14.090,93.09,250524,,,A*6E

[2024-05-25 20:43:11.504764] $GPRMC,185502.00,A,3819.86762,N,02639.00998,E,14.868,93.19,250524,,,A*68

[2024-05-25 20:43:12.500346] $GPRMC,185503.00,A,3819.86742,N,02639.01511,E,14.190,92.76,250524,,,A*61

[2024-05-25 20:43:13.503561] $GPRMC,185504.00,A,3819.86726,N,02639.02006,E,13.793,92.21,250524,,,A*64

[2024-05-25 20:43:14.503488] $GPRMC,185505.00,A,3819.86711,N,02639.02496,E,13.786,91.80,250524,,,A*60

[2024-05-25 20:43:15.505083] $GPRMC,185506.00,A,3819.86701,N,02639.02981,E,13.672,91.60,250524,,,A*6D

[2024-05-25 20:43:16.502827] $GPRMC,185507.00,A,3819.86685,N,02639.03450,E,13.058,92.88,250524,,,A*6A

[2024-05-25 20:43:17.501966] $GPRMC,185508.00,A,3819.86616,N,02639.03888,E,12.402,102.38,250524,,,A*5F

[2024-05-25 20:43:18.502800] $GPRMC,185509.00,A,3819.86473,N,02639.04283,E,12.435,114.53,250524,,,A*57

[2024-05-25 20:43:19.506658] $GPRMC,185510.00,A,3819.86305,N,02639.04647,E,11.900,116.91,250524,,,A*51

[2024-05-25 20:43:20.503410] $GPRMC,185511.00,A,3819.86086,N,02639.04996,E,13.017,129.05,250524,,,A*57

[2024-05-25 20:43:21.504027] $GPRMC,185512.00,A,3819.85862,N,02639.05353,E,12.708,128.44,250524,,,A*5B

[2024-05-25 20:43:22.506467] $GPRMC,185513.00,A,3819.85648,N,02639.05682,E,11.521,127.48,250524,,,A*5C

[2024-05-25 20:43:23.507874] $GPRMC,185514.00,A,3819.85468,N,02639.06004,E,10.845,123.70,250524,,,A*51

[2024-05-25 20:43:24.503129] $GPRMC,185515.00,A,3819.85323,N,02639.06334,E,10.534,119.39,250524,,,A*57

[2024-05-25 20:43:25.500784] $GPRMC,185516.00,A,3819.85209,N,02639.06686,E,10.835,113.64,250524,,,A*5F

[2024-05-25 20:43:26.506479] $GPRMC,185517.00,A,3819.85112,N,02639.07059,E,11.073,107.95,250524,,,A*52

[2024-05-25 20:43:27.508925] $GPRMC,185518.00,A,3819.85036,N,02639.07435,E,10.773,104.48,250524,,,A*51

[2024-05-25 20:43:28.509671] $GPRMC,185519.00,A,3819.84977,N,02639.07795,E,10.171,102.04,250524,,,A*5E

[2024-05-25 20:43:29.507105] $GPRMC,185520.00,A,3819.84922,N,02639.08143,E,9.758,102.51,250524,,,A*63

[2024-05-25 20:43:30.502668] $GPRMC,185521.00,A,3819.84848,N,02639.08482,E,9.848,106.25,250524,,,A*6E

[2024-05-25 20:43:31.506859] $GPRMC,185522.00,A,3819.84769,N,02639.08838,E,10.703,105.05,250524,,,A*55

[2024-05-25 20:43:32.508253] $GPRMC,185523.00,A,3819.84699,N,02639.09213,E,11.399,102.55,250524,,,A*5C

[2024-05-25 20:43:33.502796] $GPRMC,185524.00,A,3819.84627,N,02639.09622,E,11.905,103.04,250524,,,A*52

[2024-05-25 20:43:34.505716] $GPRMC,185525.00,A,3819.84545,N,02639.10015,E,11.211,104.85,250524,,,A*5E

[2024-05-25 20:43:35.509810] $GPRMC,185526.00,A,3819.84466,N,02639.10400,E,10.966,104.75,250524,,,A*58

[2024-05-25 20:43:36.509249] $GPRMC,185527.00,A,3819.84393,N,02639.10762,E,10.215,104.78,250524,,,A*51

[2024-05-25 20:43:37.510059] $GPRMC,185528.00,A,3819.84333,N,02639.11045,E,7.327,104.66,250524,,,A*6E

[2024-05-25 20:43:38.505169] $GPRMC,185529.00,A,3819.84254,N,02639.11218,E,4.861,122.29,250524,,,A*60

[2024-05-25 20:43:39.505899] $GPRMC,185530.00,A,3819.84164,N,02639.11327,E,4.699,133.41,250524,,,A*62

[2024-05-25 20:43:40.508037] $GPRMC,185531.00,A,3819.84051,N,02639.11411,E,4.650,140.85,250524,,,A*6F

[2024-05-25 20:43:41.505182] $GPRMC,185532.00,A,3819.83912,N,02639.11464,E,5.034,157.30,250524,,,A*6A

[2024-05-25 20:43:42.506330] $GPRMC,185533.00,A,3819.83751,N,02639.11473,E,5.319,174.70,250524,,,A*6D

[2024-05-25 20:43:43.506761] $GPRMC,185534.00,A,3819.83597,N,02639.11462,E,4.685,178.14,250524,,,A*6D

[2024-05-25 20:43:44.510091] $GPRMC,185535.00,A,3819.83450,N,02639.11455,E,4.857,177.49,250524,,,A*64

[2024-05-25 20:43:45.511255] $GPRMC,185536.00,A,3819.83313,N,02639.11473,E,4.845,170.86,250524,,,A*64

[2024-05-25 20:43:46.512921] $GPRMC,185537.00,A,3819.83194,N,02639.11529,E,4.256,166.64,250524,,,A*65

[2024-05-25 20:43:47.506652] $GPRMC,185538.00,A,3819.83111,N,02639.11643,E,4.583,144.83,250524,,,A*6E

[2024-05-25 20:43:48.507228] $GPRMC,185539.00,A,3819.83085,N,02639.11785,E,4.054,113.84,250524,,,A*62

[2024-05-25 20:43:49.505816] $GPRMC,185540.00,A,3819.83104,N,02639.11926,E,4.103,85.54,250524,,,A*53

[2024-05-25 20:43:50.507663] $GPRMC,185541.00,A,3819.83174,N,02639.12024,E,4.099,63.77,250524,,,A*56

[2024-05-25 20:43:51.507914] $GPRMC,185542.00,A,3819.83266,N,02639.12084,E,3.577,35.16,250524,,,A*59

[2024-05-25 20:43:52.513272] $GPRMC,185543.00,A,3819.83381,N,02639.12098,E,4.662,8.62,250524,,,A*60

[2024-05-25 20:43:53.508401] $GPRMC,185544.00,A,3819.83537,N,02639.12056,E,6.703,353.03,250524,,,A*60

[2024-05-25 20:43:54.506573] $GPRMC,185545.00,A,3819.83726,N,02639.12000,E,7.773,350.04,250524,,,A*62

[2024-05-25 20:43:55.507113] $GPRMC,185546.00,A,3819.83932,N,02639.11940,E,8.546,349.44,250524,,,A*63

[2024-05-25 20:43:56.506488] $GPRMC,185547.00,A,3819.84126,N,02639.11880,E,7.657,349.93,250524,,,A*63

[2024-05-25 20:43:57.507204] $GPRMC,185548.00,A,3819.84306,N,02639.11833,E,6.839,352.48,250524,,,A*6F

[2024-05-25 20:43:58.506500] $GPRMC,185549.00,A,3819.84473,N,02639.11803,E,6.619,353.99,250524,,,A*69

[2024-05-25 20:43:59.506933] $GPRMC,185550.00,A,3819.84644,N,02639.11780,E,6.451,357.78,250524,,,A*66

[2024-05-25 20:44:00.505973] $GPRMC,185551.00,A,3819.84816,N,02639.11782,E,6.751,3.11,250524,,,A*62

[2024-05-25 20:44:01.507333] $GPRMC,185552.00,A,3819.84971,N,02639.11850,E,6.283,17.84,250524,,,A*52

[2024-05-25 20:44:02.506611] $GPRMC,185553.00,A,3819.85094,N,02639.12011,E,6.889,34.92,250524,,,A*58

[2024-05-25 20:44:03.508205] $GPRMC,185554.00,A,3819.85168,N,02639.12241,E,7.240,58.42,250524,,,A*53

[2024-05-25 20:44:04.508111] $GPRMC,185555.00,A,3819.85228,N,02639.12503,E,7.705,69.20,250524,,,A*56

[2024-05-25 20:44:05.508082] $GPRMC,185556.00,A,3819.85306,N,02639.12767,E,8.261,68.74,250524,,,A*50

[2024-05-25 20:44:06.507309] $GPRMC,185557.00,A,3819.85408,N,02639.13030,E,8.413,65.32,250524,,,A*50

[2024-05-25 20:44:07.506857] $GPRMC,185558.00,A,3819.85521,N,02639.13271,E,7.375,62.12,250524,,,A*5F

[2024-05-25 20:44:08.514278] $GPRMC,185559.00,A,3819.85591,N,02639.13427,E,4.119,62.24,250524,,,A*5E

[2024-05-25 20:44:09.518046] $GPRMC,185600.00,A,3819.85651,N,02639.13559,E,4.519,60.27,250524,,,A*53

[2024-05-25 20:44:10.528009] $GPRMC,185601.00,A,3819.85717,N,02639.13698,E,4.475,60.63,250524,,,A*54

[2024-05-25 20:44:11.513438] $GPRMC,185602.00,A,3819.85767,N,02639.13825,E,3.566,63.27,250524,,,A*5F

[2024-05-25 20:44:12.511751] $GPRMC,185603.00,A,3819.85816,N,02639.13947,E,3.857,63.12,250524,,,A*5B

[2024-05-25 20:44:13.515163] $GPRMC,185604.00,A,3819.85871,N,02639.14039,E,3.144,55.07,250524,,,A*50

[2024-05-25 20:44:14.514352] $GPRMC,185605.00,A,3819.85954,N,02639.14107,E,3.400,33.94,250524,,,A*54

[2024-05-25 20:44:15.513316] $GPRMC,185606.00,A,3819.86029,N,02639.14139,E,2.702,22.64,250524,,,A*55

[2024-05-25 20:44:16.516740] $GPRMC,185607.00,A,3819.86099,N,02639.14138,E,2.698,7.15,250524,,,A*6D

[2024-05-25 20:44:17.515302] $GPRMC,185608.00,A,3819.86164,N,02639.14106,E,2.670,354.78,250524,,,A*64

[2024-05-25 20:44:18.514696] $GPRMC,185609.00,A,3819.86218,N,02639.14047,E,2.867,339.56,250524,,,A*66

[2024-05-25 20:44:19.516121] $GPRMC,185610.00,A,3819.86261,N,02639.13954,E,3.269,322.65,250524,,,A*63

[2024-05-25 20:44:20.513872] $GPRMC,185611.00,A,3819.86293,N,02639.13859,E,2.887,308.54,250524,,,A*62

[2024-05-25 20:44:21.513783] $GPRMC,185612.00,A,3819.86296,N,02639.13789,E,1.881,287.14,250524,,,A*61

[2024-05-25 20:44:22.517437] $GPRMC,185613.00,A,3819.86292,N,02639.13723,E,2.206,274.75,250524,,,A*69

[2024-05-25 20:44:23.511946] $GPRMC,185614.00,A,3819.86290,N,02639.13668,E,1.616,272.36,250524,,,A*65

[2024-05-25 20:44:24.509644] $GPRMC,185615.00,A,3819.86277,N,02639.13613,E,1.936,239.83,250524,,,A*6D

[2024-05-25 20:44:25.510754] $GPRMC,185616.00,A,3819.86230,N,02639.13555,E,2.669,227.86,250524,,,A*60

[2024-05-25 20:44:26.516693] $GPRMC,185617.00,A,3819.86157,N,02639.13512,E,3.005,211.96,250524,,,A*69

[2024-05-25 20:44:27.517788] $GPRMC,185618.00,A,3819.86065,N,02639.13499,E,3.499,200.29,250524,,,A*61

[2024-05-25 20:44:28.514616] $GPRMC,185619.00,A,3819.85974,N,02639.13501,E,3.087,189.97,250524,,,A*66

[2024-05-25 20:44:29.511943] $GPRMC,185620.00,A,3819.85890,N,02639.13495,E,2.729,188.00,250524,,,A*66

[2024-05-25 20:44:30.514555] $GPRMC,185621.00,A,3819.85814,N,02639.13480,E,2.698,191.98,250524,,,A*6D

[2024-05-25 20:44:31.515837] $GPRMC,185622.00,A,3819.85742,N,02639.13448,E,2.642,198.19,250524,,,A*61

[2024-05-25 20:44:32.513532] $GPRMC,185623.00,A,3819.85650,N,02639.13394,E,4.065,205.84,250524,,,A*62

[2024-05-25 20:44:33.515462] $GPRMC,185624.00,A,3819.85557,N,02639.13300,E,4.394,216.72,250524,,,A*6A

[2024-05-25 20:44:34.509765] $GPRMC,185625.00,A,3819.85471,N,02639.13162,E,5.395,229.13,250524,,,A*63

[2024-05-25 20:44:35.510007] $GPRMC,185626.00,A,3819.85394,N,02639.12983,E,6.302,238.45,250524,,,A*64

[2024-05-25 20:44:36.511028] $GPRMC,185627.00,A,3819.85326,N,02639.12773,E,6.907,245.10,250524,,,A*68

[2024-05-25 20:44:37.513608] $GPRMC,185628.00,A,3819.85272,N,02639.12562,E,5.994,250.40,250524,,,A*6D

[2024-05-25 20:44:38.512071] $GPRMC,185629.00,A,3819.85266,N,02639.12381,E,4.935,259.42,250524,,,A*63

[2024-05-25 20:44:39.511976] $GPRMC,185630.00,A,3819.85312,N,02639.12192,E,6.033,275.52,250524,,,A*6B

[2024-05-25 20:44:40.514203] $GPRMC,185631.00,A,3819.85405,N,02639.12011,E,6.270,301.28,250524,,,A*6B

[2024-05-25 20:44:41.508820] $GPRMC,185632.00,A,3819.85537,N,02639.11867,E,6.378,315.49,250524,,,A*69

[2024-05-25 20:44:42.512162] $GPRMC,185633.00,A,3819.85705,N,02639.11759,E,7.119,333.67,250524,,,A*65

[2024-05-25 20:44:43.516099] $GPRMC,185634.00,A,3819.85915,N,02639.11697,E,8.291,349.07,250524,,,A*69

[2024-05-25 20:44:44.515886] $GPRMC,185635.00,A,3819.86170,N,02639.11674,E,9.919,357.42,250524,,,A*69

[2024-05-25 20:44:45.513743] $GPRMC,185636.00,A,3819.86469,N,02639.11657,E,11.383,357.43,250524,,,A*57

[2024-05-25 20:44:46.521131] $GPRMC,185637.00,A,3819.86812,N,02639.11651,E,12.829,359.85,250524,,,A*5C

[2024-05-25 20:44:47.515667] $GPRMC,185638.00,A,3819.87189,N,02639.11650,E,14.173,0.62,250524,,,A*5E

[2024-05-25 20:44:48.515123] $GPRMC,185639.00,A,3819.87595,N,02639.11668,E,15.033,2.75,250524,,,A*5D

[2024-05-25 20:44:49.510157] $GPRMC,185640.00,A,3819.88012,N,02639.11708,E,15.400,5.16,250524,,,A*57

[2024-05-25 20:44:50.513831] $GPRMC,185641.00,A,3819.88430,N,02639.11774,E,15.410,7.86,250524,,,A*53

[2024-05-25 20:44:51.511871] $GPRMC,185642.00,A,3819.88853,N,02639.11877,E,15.756,12.23,250524,,,A*6F

[2024-05-25 20:44:52.516110] $GPRMC,185643.00,A,3819.89270,N,02639.12032,E,15.687,17.85,250524,,,A*6A

[2024-05-25 20:44:53.515063] $GPRMC,185644.00,A,3819.89686,N,02639.12210,E,15.972,19.11,250524,,,A*64

[2024-05-25 20:44:54.510368] $GPRMC,185645.00,A,3819.90104,N,02639.12390,E,15.942,18.37,250524,,,A*6F

[2024-05-25 20:44:55.511177] $GPRMC,185646.00,A,3819.90525,N,02639.12552,E,15.873,15.98,250524,,,A*68

[2024-05-25 20:44:56.511086] $GPRMC,185647.00,A,3819.90948,N,02639.12680,E,15.507,12.26,250524,,,A*6E

[2024-05-25 20:44:57.512424] $GPRMC,185648.00,A,3819.91370,N,02639.12764,E,15.427,7.85,250524,,,A*54

[2024-05-25 20:44:58.512160] $GPRMC,185649.00,A,3819.91798,N,02639.12790,E,15.549,1.32,250524,,,A*5F

[2024-05-25 20:44:59.513758] $GPRMC,185650.00,A,3819.92243,N,02639.12769,E,16.226,356.99,250524,,,A*5C

[2024-05-25 20:45:00.516468] $GPRMC,185651.00,A,3819.92708,N,02639.12737,E,17.014,357.35,250524,,,A*59

[2024-05-25 20:45:01.517589] $GPRMC,185652.00,A,3819.93192,N,02639.12712,E,17.700,358.00,250524,,,A*52

[2024-05-25 20:45:02.513382] $GPRMC,185653.00,A,3819.93680,N,02639.12694,E,17.525,358.90,250524,,,A*54

[2024-05-25 20:45:03.517160] $GPRMC,185654.00,A,3819.94154,N,02639.12684,E,16.831,359.21,250524,,,A*59

[2024-05-25 20:45:04.514027] $GPRMC,185655.00,A,3819.94599,N,02639.12675,E,15.810,359.31,250524,,,A*52

[2024-05-25 20:45:05.515366] $GPRMC,185656.00,A,3819.94986,N,02639.12657,E,13.159,357.96,250524,,,A*52

[2024-05-25 20:45:06.514121] $GPRMC,185657.00,A,3819.95306,N,02639.12593,E,11.334,349.31,250524,,,A*52

[2024-05-25 20:45:07.514451] $GPRMC,185658.00,A,3819.95577,N,02639.12441,E,10.611,334.24,250524,,,A*5E

[2024-05-25 20:45:08.517264] $GPRMC,185659.00,A,3819.95790,N,02639.12211,E,9.973,319.82,250524,,,A*67

[2024-05-25 20:45:09.525951] $GPRMC,185700.00,A,3819.95947,N,02639.11901,E,10.723,302.56,250524,,,A*57

[2024-05-25 20:45:10.513973] $GPRMC,185701.00,A,3819.96085,N,02639.11528,E,12.080,296.31,250524,,,A*54

[2024-05-25 20:45:11.510607] $GPRMC,185702.00,A,3819.96250,N,02639.11125,E,12.985,296.87,250524,,,A*55

[2024-05-25 20:45:12.509015] $GPRMC,185703.00,A,3819.96470,N,02639.10725,E,14.025,305.48,250524,,,A*5A

[2024-05-25 20:45:13.512478] $GPRMC,185704.00,A,3819.96760,N,02639.10350,E,15.187,315.99,250524,,,A*5C

[2024-05-25 20:45:14.511271] $GPRMC,185705.00,A,3819.97106,N,02639.09994,E,16.369,321.81,250524,,,A*5F

[2024-05-25 20:45:15.511457] $GPRMC,185706.00,A,3819.97483,N,02639.09631,E,17.342,323.10,250524,,,A*56

[2024-05-25 20:45:16.514192] $GPRMC,185707.00,A,3819.97880,N,02639.09259,E,17.980,324.11,250524,,,A*50

[2024-05-25 20:45:17.509402] $GPRMC,185708.00,A,3819.98291,N,02639.08887,E,18.338,325.02,250524,,,A*57

[2024-05-25 20:45:18.514005] $GPRMC,185709.00,A,3819.98702,N,02639.08518,E,18.219,325.03,250524,,,A*51

[2024-05-25 20:45:19.511518] $GPRMC,185710.00,A,3819.99117,N,02639.08158,E,17.994,325.88,250524,,,A*58

[2024-05-25 20:45:20.510584] $GPRMC,185711.00,A,3819.99524,N,02639.07803,E,17.487,325.29,250524,,,A*51

[2024-05-25 20:45:21.514243] $GPRMC,185712.00,A,3819.99908,N,02639.07446,E,16.927,323.19,250524,,,A*5E

[2024-05-25 20:45:22.515469] $GPRMC,185713.00,A,3820.00256,N,02639.07065,E,16.560,317.89,250524,,,A*51

[2024-05-25 20:45:23.512360] $GPRMC,185714.00,A,3820.00571,N,02639.06646,E,16.487,312.05,250524,,,A*5B

[2024-05-25 20:45:24.514523] $GPRMC,185715.00,A,3820.00871,N,02639.06189,E,16.982,307.96,250524,,,A*55

[2024-05-25 20:45:25.514160] $GPRMC,185716.00,A,3820.01151,N,02639.05679,E,17.871,302.71,250524,,,A*57

[2024-05-25 20:45:26.512837] $GPRMC,185717.00,A,3820.01396,N,02639.05109,E,18.775,297.16,250524,,,A*57

[2024-05-25 20:45:27.516561] $GPRMC,185718.00,A,3820.01608,N,02639.04484,E,19.552,291.36,250524,,,A*59

[2024-05-25 20:45:28.515269] $GPRMC,185719.00,A,3820.01779,N,02639.03830,E,19.557,286.25,250524,,,A*5A

[2024-05-25 20:45:29.514678] $GPRMC,185720.00,A,3820.01901,N,02639.03212,E,17.458,282.11,250524,,,A*58

[2024-05-25 20:45:30.518018] $GPRMC,185721.00,A,3820.01978,N,02639.02706,E,13.588,279.21,250524,,,A*59

[2024-05-25 20:45:31.518584] $GPRMC,185722.00,A,3820.02042,N,02639.02330,E,9.869,281.65,250524,,,A*66

[2024-05-25 20:45:32.508938] $GPRMC,185723.00,A,3820.02143,N,02639.02054,E,8.245,292.70,250524,,,A*65

[2024-05-25 20:45:33.518140] $GPRMC,185724.00,A,3820.02294,N,02639.01877,E,7.107,315.00,250524,,,A*62

[2024-05-25 20:45:34.515595] $GPRMC,185725.00,A,3820.02470,N,02639.01795,E,6.652,339.39,250524,,,A*6E

[2024-05-25 20:45:35.515605] $GPRMC,185726.00,A,3820.02673,N,02639.01795,E,7.940,2.52,250524,,,A*67

[2024-05-25 20:45:36.514556] $GPRMC,185727.00,A,3820.02925,N,02639.01860,E,10.241,13.35,250524,,,A*62

[2024-05-25 20:45:37.517110] $GPRMC,185728.00,A,3820.03237,N,02639.01953,E,12.281,13.26,250524,,,A*69

[2024-05-25 20:45:38.516577] $GPRMC,185729.00,A,3820.03602,N,02639.02060,E,14.153,12.90,250524,,,A*66

[2024-05-25 20:45:39.517911] $GPRMC,185730.00,A,3820.04009,N,02639.02178,E,15.750,12.70,250524,,,A*66

[2024-05-25 20:45:40.520876] $GPRMC,185731.00,A,3820.04430,N,02639.02306,E,15.804,13.68,250524,,,A*64

[2024-05-25 20:45:41.517515] $GPRMC,185732.00,A,3820.04841,N,02639.02428,E,15.104,13.22,250524,,,A*61

[2024-05-25 20:45:42.514515] $GPRMC,185733.00,A,3820.05232,N,02639.02552,E,14.366,14.05,250524,,,A*66

[2024-05-25 20:45:43.517671] $GPRMC,185734.00,A,3820.05592,N,02639.02683,E,13.087,16.58,250524,,,A*62

[2024-05-25 20:45:44.515711] $GPRMC,185735.00,A,3820.05891,N,02639.02812,E,10.813,19.29,250524,,,A*64

[2024-05-25 20:45:45.517116] $GPRMC,185736.00,A,3820.06122,N,02639.02930,E,8.331,22.11,250524,,,A*55

[2024-05-25 20:45:46.514482] $GPRMC,185737.00,A,3820.06282,N,02639.03014,E,5.395,22.55,250524,,,A*50

[2024-05-25 20:45:47.514852] $GPRMC,185738.00,A,3820.06367,N,02639.03058,E,2.386,22.61,250524,,,A*5F

[2024-05-25 20:45:48.516933] $GPRMC,185739.00,A,3820.06383,N,02639.03067,E,0.016,,250524,,,A*79

[2024-05-25 20:45:49.513043] $GPRMC,185740.00,A,3820.06382,N,02639.03067,E,0.027,,250524,,,A*74

[2024-05-25 20:45:50.512173] $GPRMC,185741.00,A,3820.06381,N,02639.03068,E,0.095,,250524,,,A*70

[2024-05-25 20:45:51.513012] $GPRMC,185742.00,A,3820.06378,N,02639.03067,E,0.083,,250524,,,A*7D

[2024-05-25 20:45:52.516908] $GPRMC,185743.00,A,3820.06377,N,02639.03066,E,0.116,,250524,,,A*7F

[2024-05-25 20:45:53.515831] $GPRMC,185744.00,A,3820.06375,N,02639.03067,E,0.073,,250524,,,A*79

[2024-05-25 20:45:54.511922] $GPRMC,185745.00,A,3820.06374,N,02639.03068,E,0.094,,250524,,,A*7F

[2024-05-25 20:45:55.514539] $GPRMC,185746.00,A,3820.06374,N,02639.03068,E,0.014,,250524,,,A*74

[2024-05-25 20:45:56.512819] $GPRMC,185747.00,A,3820.06372,N,02639.03066,E,0.068,,250524,,,A*76

[2024-05-25 20:45:57.515214] $GPRMC,185748.00,A,3820.06372,N,02639.03065,E,0.034,,250524,,,A*73

[2024-05-25 20:45:58.512105] $GPRMC,185749.00,A,3820.06372,N,02639.03064,E,0.007,,250524,,,A*73

[2024-05-25 20:45:59.516937] $GPRMC,185750.00,A,3820.06373,N,02639.03063,E,0.041,,250524,,,A*7F

[2024-05-25 20:46:00.512836] $GPRMC,185751.00,A,3820.06374,N,02639.03063,E,0.047,,250524,,,A*7F

[2024-05-25 20:46:01.513351] $GPRMC,185752.00,A,3820.06384,N,02639.03066,E,0.517,22.22,250524,,,A*58

[2024-05-25 20:46:02.512979] $GPRMC,185753.00,A,3820.06448,N,02639.03082,E,3.099,11.81,250524,,,A*5D

[2024-05-25 20:46:03.513302] $GPRMC,185754.00,A,3820.06597,N,02639.03139,E,6.505,17.63,250524,,,A*57

[2024-05-25 20:46:04.513261] $GPRMC,185755.00,A,3820.06811,N,02639.03243,E,8.856,21.42,250524,,,A*58

[2024-05-25 20:46:05.514605] $GPRMC,185756.00,A,3820.07071,N,02639.03393,E,10.927,24.98,250524,,,A*64

[2024-05-25 20:46:06.513257] $GPRMC,185757.00,A,3820.07376,N,02639.03609,E,13.261,29.89,250524,,,A*60

[2024-05-25 20:46:07.514757] $GPRMC,185758.00,A,3820.07700,N,02639.03885,E,14.337,35.16,250524,,,A*6E

[2024-05-25 20:46:08.517278] $GPRMC,185759.00,A,3820.08023,N,02639.04211,E,14.943,39.70,250524,,,A*63

[2024-05-25 20:46:09.522231] $GPRMC,185800.00,A,3820.08331,N,02639.04586,E,15.697,45.18,250524,,,A*6B

[2024-05-25 20:46:10.518737] $GPRMC,185801.00,A,3820.08612,N,02639.05006,E,15.674,51.50,250524,,,A*66

[2024-05-25 20:46:11.513369] $GPRMC,185802.00,A,3820.08847,N,02639.05447,E,14.683,58.23,250524,,,A*6E

[2024-05-25 20:46:12.512168] $GPRMC,185803.00,A,3820.09051,N,02639.05870,E,13.650,59.24,250524,,,A*66

[2024-05-25 20:46:13.515494] $GPRMC,185804.00,A,3820.09236,N,02639.06226,E,11.502,55.53,250524,,,A*62

[2024-05-25 20:46:14.513448] $GPRMC,185805.00,A,3820.09420,N,02639.06472,E,9.090,44.64,250524,,,A*56

[2024-05-25 20:46:15.512768] $GPRMC,185806.00,A,3820.09617,N,02639.06634,E,8.190,30.63,250524,,,A*57

[2024-05-25 20:46:16.517827] $GPRMC,185807.00,A,3820.09823,N,02639.06732,E,7.788,17.66,250524,,,A*58

[2024-05-25 20:46:17.515196] $GPRMC,185808.00,A,3820.10038,N,02639.06762,E,7.954,3.99,250524,,,A*62

[2024-05-25 20:46:18.514860] $GPRMC,185809.00,A,3820.10278,N,02639.06742,E,9.069,354.97,250524,,,A*61

[2024-05-25 20:46:19.513456] $GPRMC,185810.00,A,3820.10551,N,02639.06699,E,10.437,352.82,250524,,,A*57

[2024-05-25 20:46:20.511185] $GPRMC,185811.00,A,3820.10857,N,02639.06640,E,11.700,351.70,250524,,,A*51

[2024-05-25 20:46:21.513535] $GPRMC,185812.00,A,3820.11176,N,02639.06572,E,11.880,351.17,250524,,,A*5D

[2024-05-25 20:46:22.512521] $GPRMC,185813.00,A,3820.11453,N,02639.06508,E,9.751,350.29,250524,,,A*65

[2024-05-25 20:46:23.515915] $GPRMC,185814.00,A,3820.11659,N,02639.06436,E,7.166,345.87,250524,,,A*6A

[2024-05-25 20:46:24.513083] $GPRMC,185815.00,A,3820.11801,N,02639.06341,E,5.380,337.88,250524,,,A*6D

[2024-05-25 20:46:25.515330] $GPRMC,185816.00,A,3820.11900,N,02639.06212,E,5.119,324.25,250524,,,A*6E

[2024-05-25 20:46:26.511381] $GPRMC,185817.00,A,3820.11970,N,02639.06043,E,5.622,305.41,250524,,,A*60

[2024-05-25 20:46:27.516287] $GPRMC,185818.00,A,3820.12022,N,02639.05818,E,7.087,291.72,250524,,,A*60

[2024-05-25 20:46:28.508623] $GPRMC,185819.00,A,3820.12035,N,02639.05534,E,8.559,273.05,250524,,,A*61

[2024-05-25 20:46:29.515123] $GPRMC,185820.00,A,3820.12029,N,02639.05201,E,9.937,267.57,250524,,,A*60

[2024-05-25 20:46:30.514702] $GPRMC,185821.00,A,3820.12013,N,02639.04815,E,11.480,267.14,250524,,,A*59

[2024-05-25 20:46:31.518174] $GPRMC,185822.00,A,3820.11988,N,02639.04376,E,13.031,265.41,250524,,,A*52

[2024-05-25 20:46:32.512737] $GPRMC,185823.00,A,3820.11947,N,02639.03902,E,13.857,262.72,250524,,,A*51

[2024-05-25 20:46:33.509548] $GPRMC,185824.00,A,3820.11892,N,02639.03397,E,14.623,261.78,250524,,,A*5A

[2024-05-25 20:46:34.511567] $GPRMC,185825.00,A,3820.11822,N,02639.02876,E,15.140,261.63,250524,,,A*5C

[2024-05-25 20:46:35.513194] $GPRMC,185826.00,A,3820.11750,N,02639.02348,E,15.217,261.40,250524,,,A*53

[2024-05-25 20:46:36.510684] $GPRMC,185827.00,A,3820.11684,N,02639.01814,E,15.335,260.72,250524,,,A*5A

[2024-05-25 20:46:37.509649] $GPRMC,185828.00,A,3820.11606,N,02639.01275,E,15.495,259.97,250524,,,A*5E

[2024-05-25 20:46:38.509339] $GPRMC,185829.00,A,3820.11512,N,02639.00736,E,15.636,257.35,250524,,,A*57

[2024-05-25 20:46:39.510163] $GPRMC,185830.00,A,3820.11400,N,02639.00204,E,15.614,254.91,250524,,,A*54

[2024-05-25 20:46:40.516709] $GPRMC,185831.00,A,3820.11257,N,02638.99687,E,15.457,251.81,250524,,,A*5E

[2024-05-25 20:46:41.517520] $GPRMC,185832.00,A,3820.11106,N,02638.99178,E,15.422,249.69,250524,,,A*50

[2024-05-25 20:46:42.515629] $GPRMC,185833.00,A,3820.10956,N,02638.98692,E,14.725,248.35,250524,,,A*52

[2024-05-25 20:46:43.513727] $GPRMC,185834.00,A,3820.10792,N,02638.98230,E,14.172,247.28,250524,,,A*58

[2024-05-25 20:46:44.513599] $GPRMC,185835.00,A,3820.10634,N,02638.97791,E,13.803,244.70,250524,,,A*53

[2024-05-25 20:46:45.515751] $GPRMC,185836.00,A,3820.10457,N,02638.97364,E,13.869,241.29,250524,,,A*5C

[2024-05-25 20:46:46.519265] $GPRMC,185837.00,A,3820.10257,N,02638.96944,E,14.123,237.72,250524,,,A*5D

[2024-05-25 20:46:47.517875] $GPRMC,185838.00,A,3820.10027,N,02638.96523,E,14.749,235.57,250524,,,A*55

[2024-05-25 20:46:48.516854] $GPRMC,185839.00,A,3820.09790,N,02638.96085,E,15.252,235.87,250524,,,A*5D

[2024-05-25 20:46:49.518864] $GPRMC,185840.00,A,3820.09570,N,02638.95631,E,15.193,239.07,250524,,,A*5F

[2024-05-25 20:46:50.513154] $GPRMC,185841.00,A,3820.09364,N,02638.95147,E,15.882,242.12,250524,,,A*5A

[2024-05-25 20:46:51.512964] $GPRMC,185842.00,A,3820.09177,N,02638.94650,E,15.654,245.07,250524,,,A*5F

[2024-05-25 20:46:52.514691] $GPRMC,185843.00,A,3820.09005,N,02638.94134,E,15.965,248.43,250524,,,A*5F

[2024-05-25 20:46:53.513813] $GPRMC,185844.00,A,3820.08858,N,02638.93589,E,16.593,252.35,250524,,,A*50

[2024-05-25 20:46:54.510109] $GPRMC,185845.00,A,3820.08679,N,02638.93041,E,17.010,245.84,250524,,,A*5E

[2024-05-25 20:46:55.509993] $GPRMC,185846.00,A,3820.08508,N,02638.92461,E,17.867,249.26,250524,,,A*53

[2024-05-25 20:46:56.513655] $GPRMC,185847.00,A,3820.08341,N,02638.91874,E,17.731,250.40,250524,,,A*56

[2024-05-25 20:46:57.516950] $GPRMC,185848.00,A,3820.08199,N,02638.91305,E,16.864,251.62,250524,,,A*5C

[2024-05-25 20:46:58.509658] $GPRMC,185849.00,A,3820.08044,N,02638.90746,E,16.871,251.58,250524,,,A*53

[2024-05-25 20:46:59.518073] $GPRMC,185850.00,A,3820.07894,N,02638.90184,E,16.767,252.11,250524,,,A*5F

[2024-05-25 20:47:00.511093] $GPRMC,185851.00,A,3820.07759,N,02638.89611,E,16.983,254.29,250524,,,A*5A

[2024-05-25 20:47:01.517987] $GPRMC,185852.00,A,3820.07643,N,02638.89025,E,17.138,257.91,250524,,,A*5B

[2024-05-25 20:47:02.513794] $GPRMC,185853.00,A,3820.07559,N,02638.88428,E,17.124,260.12,250524,,,A*58

[2024-05-25 20:47:03.515967] $GPRMC,185854.00,A,3820.07478,N,02638.87830,E,17.072,260.09,250524,,,A*5F

[2024-05-25 20:47:04.512149] $GPRMC,185855.00,A,3820.07402,N,02638.87236,E,16.817,261.16,250524,,,A*5A

[2024-05-25 20:47:05.517712] $GPRMC,185856.00,A,3820.07330,N,02638.86650,E,16.627,262.16,250524,,,A*54

[2024-05-25 20:47:06.510396] $GPRMC,185857.00,A,3820.07261,N,02638.86075,E,16.306,262.59,250524,,,A*5C

[2024-05-25 20:47:07.509256] $GPRMC,185858.00,A,3820.07201,N,02638.85515,E,15.772,263.07,250524,,,A*5B

[2024-05-25 20:47:08.513587] $GPRMC,185859.00,A,3820.07141,N,02638.84970,E,15.324,262.61,250524,,,A*55

[2024-05-25 20:47:09.521087] $GPRMC,185900.00,A,3820.07083,N,02638.84467,E,13.904,262.18,250524,,,A*5C

[2024-05-25 20:47:10.519412] $GPRMC,185901.00,A,3820.07032,N,02638.84049,E,11.064,261.51,250524,,,A*5C

[2024-05-25 20:47:11.513857] $GPRMC,185902.00,A,3820.06991,N,02638.83738,E,7.948,260.89,250524,,,A*6C

[2024-05-25 20:47:12.510987] $GPRMC,185903.00,A,3820.06937,N,02638.83505,E,6.424,256.59,250524,,,A*63

[2024-05-25 20:47:13.513054] $GPRMC,185904.00,A,3820.06859,N,02638.83292,E,6.729,246.56,250524,,,A*64

[2024-05-25 20:47:14.511289] $GPRMC,185905.00,A,3820.06745,N,02638.83075,E,7.534,241.12,250524,,,A*64

[2024-05-25 20:47:15.511300] $GPRMC,185906.00,A,3820.06595,N,02638.82847,E,8.578,231.99,250524,,,A*63

[2024-05-25 20:47:16.514323] $GPRMC,185907.00,A,3820.06398,N,02638.82583,E,10.934,226.89,250524,,,A*56

[2024-05-25 20:47:17.510772] $GPRMC,185908.00,A,3820.06185,N,02638.82298,E,11.220,226.91,250524,,,A*5C

[2024-05-25 20:47:18.512288] $GPRMC,185909.00,A,3820.05947,N,02638.81972,E,12.140,225.21,250524,,,A*5A

[2024-05-25 20:47:19.515319] $GPRMC,185910.00,A,3820.05698,N,02638.81670,E,12.638,224.22,250524,,,A*58

[2024-05-25 20:47:20.511945] $GPRMC,185911.00,A,3820.05428,N,02638.81386,E,12.729,219.78,250524,,,A*5C

[2024-05-25 20:47:21.513269] $GPRMC,185912.00,A,3820.05165,N,02638.81130,E,11.861,217.67,250524,,,A*5C

[2024-05-25 20:47:22.515329] $GPRMC,185913.00,A,3820.04951,N,02638.80927,E,9.369,217.02,250524,,,A*65

[2024-05-25 20:47:23.514232] $GPRMC,185914.00,A,3820.04791,N,02638.80740,E,7.223,223.05,250524,,,A*6E

[2024-05-25 20:47:24.512320] $GPRMC,185915.00,A,3820.04703,N,02638.80585,E,5.085,230.55,250524,,,A*64

[2024-05-25 20:47:25.516192] $GPRMC,185916.00,A,3820.04612,N,02638.80445,E,4.889,230.50,250524,,,A*6B

[2024-05-25 20:47:26.516212] $GPRMC,185917.00,A,3820.04499,N,02638.80298,E,5.832,228.30,250524,,,A*63

[2024-05-25 20:47:27.518575] $GPRMC,185918.00,A,3820.04357,N,02638.80126,E,7.535,224.71,250524,,,A*6E

[2024-05-25 20:47:28.513941] $GPRMC,185919.00,A,3820.04209,N,02638.79939,E,8.071,222.83,250524,,,A*64

[2024-05-25 20:47:29.513885] $GPRMC,185920.00,A,3820.04030,N,02638.79723,E,9.099,224.19,250524,,,A*61

[2024-05-25 20:47:30.513341] $GPRMC,185921.00,A,3820.03818,N,02638.79462,E,10.583,225.77,250524,,,A*5C

[2024-05-25 20:47:31.517407] $GPRMC,185922.00,A,3820.03589,N,02638.79180,E,11.611,224.18,250524,,,A*52

[2024-05-25 20:47:32.517875] $GPRMC,185923.00,A,3820.03342,N,02638.78893,E,12.122,222.71,250524,,,A*55

[2024-05-25 20:47:33.516207] $GPRMC,185924.00,A,3820.03097,N,02638.78619,E,11.492,221.72,250524,,,A*58

[2024-05-25 20:47:34.512509] $GPRMC,185925.00,A,3820.02870,N,02638.78367,E,10.768,221.00,250524,,,A*57

[2024-05-25 20:47:35.517123] $GPRMC,185926.00,A,3820.02625,N,02638.78126,E,11.169,217.97,250524,,,A*50

[2024-05-25 20:47:36.517216] $GPRMC,185927.00,A,3820.02364,N,02638.77882,E,11.486,216.87,250524,,,A*5D

[2024-05-25 20:47:37.519066] $GPRMC,185928.00,A,3820.02121,N,02638.77651,E,11.309,215.67,250524,,,A*5C

[2024-05-25 20:47:38.516154] $GPRMC,185929.00,A,3820.01830,N,02638.77432,E,12.030,210.60,250524,,,A*58

[2024-05-25 20:47:39.516274] $GPRMC,185930.00,A,3820.01521,N,02638.77234,E,12.244,206.35,250524,,,A*5B

[2024-05-25 20:47:40.515445] $GPRMC,185931.00,A,3820.01204,N,02638.77053,E,12.478,204.76,250524,,,A*55

[2024-05-25 20:47:41.510164] $GPRMC,185932.00,A,3820.00880,N,02638.76856,E,12.638,205.54,250524,,,A*5A

[2024-05-25 20:47:42.508909] $GPRMC,185933.00,A,3820.00567,N,02638.76695,E,12.160,201.94,250524,,,A*5C

[2024-05-25 20:47:43.510250] $GPRMC,185934.00,A,3820.00237,N,02638.76542,E,12.586,200.39,250524,,,A*5A

[2024-05-25 20:47:44.511704] $GPRMC,185935.00,A,3819.99948,N,02638.76363,E,11.696,204.60,250524,,,A*5E

[2024-05-25 20:47:45.512381] $GPRMC,185936.00,A,3819.99654,N,02638.76201,E,11.221,204.47,250524,,,A*57

[2024-05-25 20:47:46.516038] $GPRMC,185937.00,A,3819.99381,N,02638.76022,E,10.870,206.01,250524,,,A*57

[2024-05-25 20:47:47.511301] $GPRMC,185938.00,A,3819.99095,N,02638.75863,E,10.217,204.10,250524,,,A*59

[2024-05-25 20:47:48.512572] $GPRMC,185939.00,A,3819.98878,N,02638.75681,E,9.287,210.06,250524,,,A*63

[2024-05-25 20:47:49.513057] $GPRMC,185940.00,A,3819.98657,N,02638.75486,E,9.589,215.28,250524,,,A*6B

[2024-05-25 20:47:50.510918] $GPRMC,185941.00,A,3819.98499,N,02638.75292,E,9.898,219.84,250524,,,A*6E

[2024-05-25 20:47:51.512487] $GPRMC,185942.00,A,3819.98240,N,02638.75034,E,10.974,220.43,250524,,,A*5B

[2024-05-25 20:47:52.519305] $GPRMC,185943.00,A,3819.97899,N,02638.74748,E,12.282,218.93,250524,,,A*50

[2024-05-25 20:47:53.518769] $GPRMC,185944.00,A,3819.97590,N,02638.74456,E,12.335,221.09,250524,,,A*5B

[2024-05-25 20:47:54.516347] $GPRMC,185945.00,A,3819.97353,N,02638.74139,E,11.248,230.04,250524,,,A*5A

[2024-05-25 20:47:55.516429] $GPRMC,185946.00,A,3819.97177,N,02638.73813,E,10.231,238.45,250524,,,A*59

[2024-05-25 20:47:56.514557] $GPRMC,185947.00,A,3819.97031,N,02638.73510,E,9.398,238.71,250524,,,A*68

[2024-05-25 20:47:57.512664] $GPRMC,185948.00,A,3819.96922,N,02638.73249,E,8.106,243.09,250524,,,A*61

[2024-05-25 20:47:58.516711] $GPRMC,185949.00,A,3819.96812,N,02638.72994,E,7.902,242.51,250524,,,A*67

[2024-05-25 20:47:59.514930] $GPRMC,185950.00,A,3819.96699,N,02638.72750,E,7.474,240.16,250524,,,A*69

[2024-05-25 20:48:00.513845] $GPRMC,185951.00,A,3819.96584,N,02638.72518,E,7.562,238.29,250524,,,A*6C

[2024-05-25 20:48:01.516771] $GPRMC,185952.00,A,3819.96467,N,02638.72300,E,6.978,234.16,250524,,,A*6A

[2024-05-25 20:48:02.516387] $GPRMC,185953.00,A,3819.96333,N,02638.72150,E,5.242,232.00,250524,,,A*6A

[2024-05-25 20:48:03.517649] $GPRMC,185954.00,A,3819.96241,N,02638.72040,E,3.030,233.22,250524,,,A*69

[2024-05-25 20:48:04.516478] $GPRMC,185955.00,A,3819.96171,N,02638.71958,E,2.133,238.82,250524,,,A*69

[2024-05-25 20:48:05.514627] $GPRMC,185956.00,A,3819.96137,N,02638.71850,E,2.957,265.86,250524,,,A*67

[2024-05-25 20:48:06.516663] $GPRMC,185957.00,A,3819.96118,N,02638.71724,E,2.918,274.08,250524,,,A*6A

[2024-05-25 20:48:07.518428] $GPRMC,185958.00,A,3819.96118,N,02638.71630,E,2.431,292.57,250524,,,A*65

[2024-05-25 20:48:08.519591] $GPRMC,185959.00,A,3819.96157,N,02638.71563,E,2.905,320.75,250524,,,A*68

[2024-05-25 20:48:09.524373] $GPRMC,190000.00,A,3819.96239,N,02638.71512,E,3.683,337.96,250524,,,A*6F

[2024-05-25 20:48:10.519411] $GPRMC,190001.00,A,3819.96353,N,02638.71459,E,4.849,342.48,250524,,,A*63

[2024-05-25 20:48:11.511586] $GPRMC,190002.00,A,3819.96547,N,02638.71403,E,7.664,349.52,250524,,,A*6E

[2024-05-25 20:48:12.507654] $GPRMC,190003.00,A,3819.96810,N,02638.71380,E,10.280,357.94,250524,,,A*51

[2024-05-25 20:48:13.506448] $GPRMC,190004.00,A,3819.97117,N,02638.71384,E,11.335,2.79,250524,,,A*53

[2024-05-25 20:48:14.507716] $GPRMC,190005.00,A,3819.97429,N,02638.71413,E,11.898,4.57,250524,,,A*55

[2024-05-25 20:48:15.510330] $GPRMC,190006.00,A,3819.97760,N,02638.71445,E,12.723,5.70,250524,,,A*53

[2024-05-25 20:48:16.509703] $GPRMC,190007.00,A,3819.98131,N,02638.71479,E,13.807,5.17,250524,,,A*59

[2024-05-25 20:48:17.507581] $GPRMC,190008.00,A,3819.98492,N,02638.71534,E,13.011,7.07,250524,,,A*5E

[2024-05-25 20:48:18.509055] $GPRMC,190009.00,A,3819.98848,N,02638.71587,E,13.501,7.32,250524,,,A*5E

[2024-05-25 20:48:19.509365] $GPRMC,190010.00,A,3819.99126,N,02638.71667,E,11.973,9.34,250524,,,A*58

[2024-05-25 20:48:20.510486] $GPRMC,190011.00,A,3819.99399,N,02638.71742,E,11.214,9.88,250524,,,A*54

[2024-05-25 20:48:21.511614] $GPRMC,190012.00,A,3819.99749,N,02638.71783,E,12.716,6.93,250524,,,A*52

[2024-05-25 20:48:22.514863] $GPRMC,190013.00,A,3820.00106,N,02638.71775,E,11.908,2.37,250524,,,A*55

[2024-05-25 20:48:23.512122] $GPRMC,190014.00,A,3820.00501,N,02638.71742,E,12.201,357.75,250524,,,A*51

[2024-05-25 20:48:24.510646] $GPRMC,190015.00,A,3820.00837,N,02638.71699,E,12.525,356.99,250524,,,A*5D

[2024-05-25 20:48:25.511424] $GPRMC,190016.00,A,3820.01120,N,02638.71672,E,10.841,358.81,250524,,,A*5F

[2024-05-25 20:48:26.509934] $GPRMC,190017.00,A,3820.01333,N,02638.71675,E,7.949,2.40,250524,,,A*67

[2024-05-25 20:48:27.511499] $GPRMC,190018.00,A,3820.01474,N,02638.71681,E,5.326,2.72,250524,,,A*67

[2024-05-25 20:48:28.511239] $GPRMC,190019.00,A,3820.01545,N,02638.71635,E,3.611,355.45,250524,,,A*68

[2024-05-25 20:48:29.514185] $GPRMC,190020.00,A,3820.01659,N,02638.71523,E,4.427,340.37,250524,,,A*69

[2024-05-25 20:48:30.515188] $GPRMC,190021.00,A,3820.01694,N,02638.71350,E,5.491,310.12,250524,,,A*65

[2024-05-25 20:48:31.511238] $GPRMC,190022.00,A,3820.01850,N,02638.71108,E,6.723,293.74,250524,,,A*6C

[2024-05-25 20:48:32.511373] $GPRMC,190023.00,A,3820.01936,N,02638.70908,E,5.952,293.62,250524,,,A*69

[2024-05-25 20:48:33.514078] $GPRMC,190024.00,A,3820.02025,N,02638.70768,E,3.978,296.26,250524,,,A*65

[2024-05-25 20:48:34.511166] $GPRMC,190025.00,A,3820.02102,N,02638.70683,E,2.179,300.73,250524,,,A*62

[2024-05-25 20:48:35.510233] $GPRMC,190026.00,A,3820.02160,N,02638.70628,E,1.730,304.43,250524,,,A*6B

[2024-05-25 20:48:36.510312] $GPRMC,190027.00,A,3820.02211,N,02638.70579,E,3.316,323.88,250524,,,A*68

[2024-05-25 20:48:37.512360] $GPRMC,190028.00,A,3820.02320,N,02638.70516,E,5.755,335.57,250524,,,A*6D

[2024-05-25 20:48:38.514742] $GPRMC,190029.00,A,3820.02509,N,02638.70452,E,7.667,346.58,250524,,,A*69

[2024-05-25 20:48:39.515169] $GPRMC,190030.00,A,3820.02753,N,02638.70373,E,9.721,346.31,250524,,,A*6A

[2024-05-25 20:48:40.519887] $GPRMC,190031.00,A,3820.03059,N,02638.70276,E,11.987,347.27,250524,,,A*5E

[2024-05-25 20:48:41.515402] $GPRMC,190032.00,A,3820.03418,N,02638.70156,E,13.809,346.84,250524,,,A*50

[2024-05-25 20:48:42.517350] $GPRMC,190033.00,A,3820.03813,N,02638.70022,E,15.230,345.85,250524,,,A*50

[2024-05-25 20:48:43.513487] $GPRMC,190034.00,A,3820.04259,N,02638.69857,E,17.156,343.73,250524,,,A*58

[2024-05-25 20:48:44.512229] $GPRMC,190035.00,A,3820.04746,N,02638.69649,E,18.810,341.51,250524,,,A*55

[2024-05-25 20:48:45.513249] $GPRMC,190036.00,A,3820.05267,N,02638.69422,E,20.493,341.88,250524,,,A*56

[2024-05-25 20:48:46.514157] $GPRMC,190037.00,A,3820.05829,N,02638.69186,E,21.648,342.35,250524,,,A*5C

[2024-05-25 20:48:47.517444] $GPRMC,190038.00,A,3820.06404,N,02638.68951,E,21.949,343.02,250524,,,A*5B

